Наименование,Описание,Рубрики,Адрес,Комментарий к адресу,Почтовый индекс,Микрорайон,Район,Город,Округ,Регион,Страна,Часы работы,Часовой пояс,Рейтинг,Количество отзывов,Телефон 1,Телефон 2,Телефон 3,E-mail 1,E-mail 2,Веб-сайт 1,Веб-сайт 2,Веб-сайт 3,Twitter,ВКонтакте,WhatsApp 1,WhatsApp 2,WhatsApp 3,Viber 1,Viber 2,Telegram 1,Telegram 2,YouTube,Широта,Долгота,2GIS URL
Сиртаки,греческая таверна,Доставка готовых блюд; Кафе; Рестораны; Банкетные залы; Бары,"Невский проспект, 102",1-2 этаж,191025,Литейный,Центральный район,Санкт-Петербург,,Санкт-Петербург,Россия,Пн: 00:00-24:00; Вт: 00:00-24:00; Ср: 00:00-24:00; Чт: 00:00-24:00; Пт: 00:00-24:00; Сб: 00:00-24:00; Вс: 00:00-24:00 (зал: пн-вс 6:00-00:00),+03:00,4.4,493,88126224991,,,dg@pome-granate.ru,,http://akrotaki.ru,,,,https://vk.com/sirtaki_taverna,https://wa.me/79111021212,,,viber://chat/?number=79111021212,,,,,59.931805,30.356301,https://2gis.com/firm/70000001030957536
Кебаб,кафе,Быстрое питание; Кафе; Доставка готовых блюд,"проспект Испытателей, 13 к3",,197341,Комендантский аэродром,Приморский район,Санкт-Петербург,,Санкт-Петербург,Россия,Пн: 00:00-24:00; Вт: 00:00-24:00; Ср: 00:00-24:00; Чт: 00:00-24:00; Пт: 00:00-24:00; Сб: 00:00-24:00; Вс: 00:00-24:00,+03:00,4.2,64,88129977745 (единый номер: круглосуточно),,,vkuskebabmenu@yandex.ru,,http://cafekebab.ru,,,,https://vk.com/vkuskebab,,,,,,,,,60.004365,30.289852,https://2gis.com/firm/70000001038720049
КофеБон,сеть кофеен,Доставка готовых блюд; Продажа кофе; Точки кофе; Продажа чая; Кафе; Кондитерские изделия,"улица Декабристов, 46",1 этаж,190121,Коломна,Адмиралтейский район,Санкт-Петербург,,Санкт-Петербург,Россия,Пн: 08:00-20:00; Вт: 08:00-20:00; Ср: 08:00-20:00; Чт: 08:00-20:00; Пт: 08:00-20:00; Сб: 08:00-20:00; Вс: 09:00-20:00,+03:00,4.9,61,88123099510 (единый номер: пн-пт 10:00-20:00),,,marketing@coffeebon.ru,,http://coffeebon.ru,,,,https://vk.com/coffee_bon,,,,,,https://t.me/coffe_bon,,,59.924877,30.28951,https://2gis.com/firm/70000001039706406
joly woo,стритфуд-кафе паназиатской кухни,Быстрое питание; Кафе; Доставка готовых блюд,"Восстания, 12",1 этаж,191014,Литейный,Центральный район,Санкт-Петербург,,Санкт-Петербург,Россия,Пн: 11:00-23:00; Вт: 11:00-23:00; Ср: 11:00-23:00; Чт: 11:00-23:00; Пт: 11:00-23:00; Сб: 11:00-23:00; Вс: 11:00-23:00,+03:00,4.5,196,"88124545224 (доп.1, многоканальный)",,,jolywoocafe@yandex.ru,,http://jolywoo.com,http://delivery.jolywoo.ru/,,,https://vk.com/joly_woo_cafe,,,,,,,,,59.936252,30.360044,https://2gis.com/firm/70000001023257115
Креветочная,,Кафе; Бары; Доставка готовых блюд,"Рубинштейна, 38",1 этаж,191002,Владимирский,Центральный район,Санкт-Петербург,,Санкт-Петербург,Россия,Пн: 13:00-01:00; Вт: 13:00-01:00; Ср: 13:00-01:00; Чт: 13:00-01:00; Пт: 13:00-01:00; Сб: 13:00-01:00; Вс: 13:00-01:00,+03:00,4.4,49,89811363898,,,,,http://t.me/angryshrimp_spb,,,,,,,,,,,,,59.926944,30.342929,https://2gis.com/firm/70000001075162672
UKUSNO сербская кухня,кафе,Доставка готовых блюд; Бары; Кафе,"Столярный переулок, 13",1 этаж,190031,Сенной,Адмиралтейский район,Санкт-Петербург,,Санкт-Петербург,Россия,Пн: 11:00-23:00; Вт: 11:00-23:00; Ср: 11:00-23:00; Чт: 11:00-23:00; Пт: 11:00-01:00; Сб: 11:00-01:00; Вс: 11:00-23:00,+03:00,4.6,243,89315857179,,,ukusno@inbox.ru,,http://ukusno.ru,,,,https://vk.com/ukusno,,,,,,,,,59.926333,30.312843,https://2gis.com/firm/70000001028638176
Косой Переулок,тематическое кафе,Сувениры; Кафе; Быстрое питание,"Большая Пушкарская, 38",цокольный этаж,197198,Кронверкское,Петроградский район,Санкт-Петербург,,Санкт-Петербург,Россия,Пн: 11:00-21:00; Вт: 11:00-21:00; Ср: 11:00-21:00; Чт: 11:00-21:00; Пт: 11:00-21:00; Сб: 11:00-21:00; Вс: 11:00-21:00,+03:00,4.2,60,89990222030,,,mail@no-muggles.ru,,http://nomuggles.ru,,,,https://vk.com/kosoipereulok,,,,,,https://t.me/no_muggles,,,59.960382,30.305931,https://2gis.com/firm/70000001025989124
Сити гриль,ресторан быстрого питания,Кафе; Быстрое питание; Доставка готовых блюд,"Невский проспект, 13",1 этаж,191186,Муниципальный округ №78,Центральный район,Санкт-Петербург,,Санкт-Петербург,Россия,Пн: 12:00-22:00; Вт: 12:00-22:00; Ср: 12:00-22:00; Чт: 12:00-22:00; Пт: 12:00-23:00; Сб: 12:00-23:00; Вс: 12:00-22:00,+03:00,4.5,217,89216578280,,,,,http://citygrillexpress.ru,,,,https://vk.com/id144362982,,,,,,,,,59.936204,30.317232,https://2gis.com/firm/70000001047572689
Любим сытно,семейное кафе,Кафе; Доставка готовых блюд; Быстрое питание,"Плесецкая, 10 ст1",1 этаж,197373,Юнтолово,Приморский район,Санкт-Петербург,,Санкт-Петербург,Россия,Пн: 09:00-23:00; Вт: 09:00-23:00; Ср: 09:00-23:00; Чт: 09:00-23:00; Пт: 09:00-01:00; Сб: 09:00-01:00; Вс: 09:00-23:00,+03:00,3.5,54,89317110178,,,,,http://lyubimsytno.ru,,,,https://vk.com/lyubimsytno,,,,,,,,,60.034484,30.217976,https://2gis.com/firm/70000001067916435
Евразия,рестораны японской и европейской кухни,Рестораны; Кафе; Суши-бары; Доставка готовых блюд,"Мурманское шоссе 12 км, 1",1 этаж,188693,,,Кудрово,Всеволожский муниципальный район,Ленинградская область,Россия,Пн: 10:00-22:00; Вт: 10:00-22:00; Ср: 10:00-22:00; Чт: 10:00-22:00; Пт: 10:00-22:00; Сб: 10:00-22:00; Вс: 10:00-22:00,+03:00,4.9,178,88126414184,,,evrasia.spb@gmail.com,,http://evrasia.spb.ru/?utm_source=pinbox&utm_medium=cpc&utm_campaign=geo,,,,https://vk.com/evrasiaspb,,,,,,https://t.me/evrasiapiter,,,59.894046,30.51098,https://2gis.com/firm/70000001057618940
Blackwood Pub,паб,Бары; Доставка готовых блюд; Рестораны; Кафе,"Итальянская, 10",цокольный этаж,191011,Дворцовый,Центральный район,Санкт-Петербург,,Санкт-Петербург,Россия,Пн: 12:00-06:00; Вт: 12:00-06:00; Ср: 12:00-06:00; Чт: 12:00-06:00; Пт: 12:00-06:00; Сб: 12:00-06:00; Вс: 12:00-06:00,+03:00,4.5,127,88124169001,,,,,http://dublinpubspb.ru,http://blackwoodpub.ru,,,https://vk.com/dublinpubspb,,,,,,,,,59.936324,30.335286,https://2gis.com/firm/70000001054170635
Beer House,сеть баров,Бары; Доставка готовых блюд; Рестораны; Кафе,"улица Некрасова, 25",1 этаж,191014,Литейный,Центральный район,Санкт-Петербург,,Санкт-Петербург,Россия,Пн: 12:00-06:00; Вт: 12:00-06:00; Ср: 12:00-06:00; Чт: 12:00-06:00; Пт: 12:00-06:00; Сб: 12:00-06:00; Вс: 12:00-06:00,+03:00,4.6,190,88125012164,,,info@beerhousebar.ru,,http://beerhousebar.ru/?utm_source=2gis,,,,https://vk.com/beerhousebar,,,,,,,,,59.938659,30.359389,https://2gis.com/firm/5348552838621573
Che cafe,городское кафе,Кафе; Доставка готовых блюд,"переулок Гривцова, 26",1 этаж,190031,Сенной,Адмиралтейский район,Санкт-Петербург,,Санкт-Петербург,Россия,Пн: 09:00-23:00; Вт: 09:00-23:00; Ср: 09:00-23:00; Чт: 09:00-23:00; Пт: 09:00-02:00; Сб: 10:00-02:00; Вс: 10:00-23:00,+03:00,4.6,73,88124022050,,,pr1@chegroup.ru,,,,,,https://vk.com/che_cafe,,,,,,https://t.me/chegroup_spb,,,59.927257,30.317241,https://2gis.com/firm/70000001065327421
Пироговый дворик,кафе-пекарня,Доставка готовых блюд; Пекарни; Кафе,"Старо-Петергофский проспект, 43-45",1 этаж,190020,Екатерингофский,Адмиралтейский район,Санкт-Петербург,,Санкт-Петербург,Россия,Пн: 08:00-21:00; Вт: 08:00-21:00; Ср: 08:00-21:00; Чт: 08:00-21:00; Пт: 08:00-21:00; Сб: 10:00-21:00; Вс: 10:00-21:00,+03:00,4.1,63,88126004202 (служба доставки),88123131061 (единая справочная: пн-вс 9:00-21:00),,info@pirogov-dvorik.ru,,http://pirogov-dvorik.ru,,,,https://vk.com/pirogovdvorik,,,,,,https://t.me/pirogov_dvorik,,,59.902093,30.275084,https://2gis.com/firm/5348552840819024
Двойник,коктейльный бар и ресторан,Бары; Рестораны; Кафе; Организация и проведение праздников,"Достоевского, 13",1 этаж,191002,Владимирский,Центральный район,Санкт-Петербург,,Санкт-Петербург,Россия,Пн: 16:00-03:00; Вт: 16:00-03:00; Ср: 16:00-03:00; Чт: 16:00-03:00; Пт: 16:00-04:00; Сб: 16:00-04:00; Вс: 16:00-03:00,+03:00,4.6,69,89955943367,,,dvoynikspb@yandex.ru,,http://dvoynikbar.ru/?utm_source=link&utm_medium=cpc&utm_campaign=2gis,,,,https://vk.com/dvoynik13,https://wa.me/79955943367,,,,,https://t.me/dvoynikspb,,,59.924521,30.348552,https://2gis.com/firm/70000001062597293
"О, мой боул!",калифорнийская покетерия,Кафе; Доставка готовых блюд,"Гороховая, 51",1 этаж,190031,Сенной,Адмиралтейский район,Санкт-Петербург,,Санкт-Петербург,Россия,Пн: 10:00-22:00; Вт: 10:00-22:00; Ср: 10:00-22:00; Чт: 10:00-22:00; Пт: 10:00-22:00; Сб: 10:00-22:00; Вс: 10:00-22:00,+03:00,4.7,606,89958900017,,,hello@ohmybowl.ru,,http://ohmybowl.ru,,,,https://vk.com/oh_mybowl,https://wa.me/79958900017,,,viber://chat/?number=79958900017,,https://t.me/mybowl,,,59.927027,30.323993,https://2gis.com/firm/70000001037290063
Mariospizza,ресторан,Кафе; Пиццерии; Рестораны,"Невский проспект, 13",1 этаж,191186,Муниципальный округ №78,Центральный район,Санкт-Петербург,,Санкт-Петербург,Россия,Пн: 12:00-23:00; Вт: 12:00-23:00; Ср: 12:00-23:00; Чт: 12:00-23:00; Пт: 12:00-23:00; Сб: 12:00-23:00; Вс: 12:00-23:00,+03:00,4.6,229,89219411150,,,,,http://mariospizza.ru,,,,,,,,,,,,,59.936159,30.317188,https://2gis.com/firm/70000001054343221
Ichiraku Ramen,раменная,Быстрое питание; Кафе; Суши-бары,"Лиговский проспект, 71 лит А",1 этаж,191040,Владимирский,Центральный район,Санкт-Петербург,,Санкт-Петербург,Россия,Пн: 11:00-23:00; Вт: 11:00-23:00; Ср: 11:00-23:00; Чт: 11:00-23:00; Пт: 11:00-23:00; Сб: 11:00-23:00; Вс: 11:00-23:00,+03:00,4.0,50,89992096502,,,ichiraku.ramen@inbox.ru,,,,,,,https://wa.me/79992096502,,,,,,,,59.926092,30.357473,https://2gis.com/firm/70000001080022179
Френдс,,Кафе; Доставка готовых блюд,"Большой проспект П.С., 81",1 этаж,197022,Аптекарский остров,Петроградский район,Санкт-Петербург,,Санкт-Петербург,Россия,Пн: 09:00-23:00; Вт: 09:00-23:00; Ср: 09:00-23:00; Чт: 09:00-23:00; Пт: 09:00-23:30; Сб: 09:00-23:30; Вс: 09:00-23:00,+03:00,4.5,174,"88129874488 (доп.2, многоканальный)",,,,,http://friendsspb.ru/?utm_source=2gis,,,,https://vk.com/friendsspb.home,,,,,,,,,59.9669,30.313809,https://2gis.com/firm/70000001052963989
Del Mar,ресторан,Доставка готовых блюд; Караоке-залы; Кафе,"Туристская улица, 34",1-3 этаж,197082,Муниципальный округ №65,Приморский район,Санкт-Петербург,,Санкт-Петербург,Россия,Пн: 11:00-04:00; Вт: 11:00-04:00; Ср: 11:00-04:00; Чт: 11:00-04:00; Пт: 11:00-06:00; Сб: 11:00-06:00; Вс: 11:00-04:00,+03:00,3.5,335,88129442727,,,help@delmar-group.ru,,http://www.delmar-spb.ru,,,,https://vk.com/delmar_official,,,,,,,,,60.007529,30.211883,https://2gis.com/firm/70000001028404814
Время есть,кафе,Кафе; Быстрое питание,"Московское шоссе, 231 к5 лит А",1 этаж,196627,Ленсоветовский пос.,Пушкинский район,Санкт-Петербург,,Санкт-Петербург,Россия,Пн: 09:00-16:00; Вт: 09:00-16:00; Ср: 09:00-16:00; Чт: 09:00-16:00; Пт: 09:00-16:00,+03:00,5.0,8,89817199097,89112686467,,,,,,,,,https://wa.me/79112686467,https://wa.me/79817199097,,,,,,,59.761814,30.474111,https://2gis.com/firm/70000001046145027
Жар-птица,пекарня,Кафе; Доставка готовых блюд; Пекарни,"Лиговский проспект, 89",цокольный этаж,191040,Владимирский,Центральный район,Санкт-Петербург,,Санкт-Петербург,Россия,Пн: 10:00-23:00; Вт: 10:00-23:00; Ср: 10:00-23:00; Чт: 10:00-23:00; Пт: 10:00-23:00; Сб: 10:00-23:00; Вс: 10:00-23:00,+03:00,4.9,571,89811308887,,,pie-delivery@mail.ru,,http://www.pie-delivery.ru,,,,https://vk.com/club32644627,https://wa.me/79811308887,,,,,,,,59.923764,30.355938,https://2gis.com/firm/70000001025043469
Накатика,японское кафе,Кафе; Доставка готовых блюд,"Тучков переулок, 11",цокольный этаж,199004,Муниципальный округ №7,Василеостровский район,Санкт-Петербург,,Санкт-Петербург,Россия,Пн: 11:00-23:00; Вт: 11:00-23:00; Ср: 11:00-23:00; Чт: 11:00-23:00; Пт: 11:00-23:00; Сб: 11:00-23:00; Вс: 11:00-23:00,+03:00,4.6,112,89319864979,,,nakatikaspb@mail.ru,,http://t.me/nakatikaspb,,,,https://vk.com/nakatikaspb,https://wa.me/79319864979,,,,,,,,59.945214,30.28831,https://2gis.com/firm/70000001023950216
Vaffel&Wine,кафе,Доставка готовых блюд; Кафе,"Гороховая, 41",1 этаж,190031,Сенной,Адмиралтейский район,Санкт-Петербург,,Санкт-Петербург,Россия,Пн: 10:00-23:00; Вт: 10:00-23:00; Ср: 10:00-23:00; Чт: 10:00-23:00; Пт: 10:00-23:00; Сб: 10:00-23:00; Вс: 10:00-23:00,+03:00,4.4,346,88129602641,89219602641,,,,http://vaffel.ru,http://t.me/vaffelspb,,,,,,,,,,,,59.929134,30.320839,https://2gis.com/firm/70000001029759919
Лео,шаверма-бар,Быстрое питание; Кафе; Доставка готовых блюд; Бары,"Караванная, 24",28Н помещение; 1 этаж,191023,Дворцовый,Центральный район,Санкт-Петербург,,Санкт-Петербург,Россия,Пн: 11:00-23:00; Вт: 11:00-23:00; Ср: 11:00-23:00; Чт: 11:00-23:00; Пт: 11:00-02:00; Сб: 11:00-02:00; Вс: 11:00-01:00,+03:00,4.6,667,89627184460,,,profud@bk.ru,,,,,,,https://wa.me/79627184460,,,,,https://t.me/leo_shaverma_bar,,,59.934467,30.341332,https://2gis.com/firm/70000001042866264
Lines coffee & breakfast,кафе,Кафе; Кофейни; Пекарни,"26-я линия В.О., 7",1 этаж,199106,Муниципальный округ №7,Василеостровский район,Санкт-Петербург,,Санкт-Петербург,Россия,Пн: 08:00-21:00; Вт: 08:00-21:00; Ср: 08:00-21:00; Чт: 08:00-21:00; Пт: 08:00-21:00; Сб: 09:00-22:00; Вс: 09:00-22:00,+03:00,4.7,39,89934922425,,,,,http://linescafe.tilda.ws,http://t.me/linescoffeebakery,,,https://vk.com/club220416290,https://wa.me/79934922425,,,,,,,,59.930715,30.262335,https://2gis.com/firm/70000001068838988
Mr. YO! Sushi & Pizza,служба доставки еды,Доставка готовых блюд; Пиццерии; Суши-бары; Кафе,"Екатерининская, 22 к1",1 этаж,188677,Западный м-н,,Мурино,Всеволожский муниципальный район,Ленинградская область,Россия,Пн: 12:00-24:00; Вт: 12:00-24:00; Ср: 12:00-24:00; Чт: 12:00-24:00; Пт: 12:00-24:00; Сб: 12:00-24:00; Вс: 12:00-24:00,+03:00,4.5,245,88126796760,,,sladkayakuhnya@yandex.ru,,http://yo.spb.ru,,,,https://vk.com/mryospb,,,,,,,,,60.062152,30.440543,https://2gis.com/firm/70000001058867936
Этнос,грузинское кафе,Кафе; Банкетные залы; Доставка готовых блюд,"Кузнечный переулок, 8",1 этаж,191025,Владимирский,Центральный район,Санкт-Петербург,,Санкт-Петербург,Россия,Пн: 11:30-24:00; Вт: 11:30-24:00; Ср: 11:30-24:00; Чт: 11:30-24:00; Пт: 11:30-24:00; Сб: 11:30-24:00; Вс: 11:30-24:00,+03:00,4.4,116,89219039660,89319761866,,ethnoscafe@gmail.com,,http://ethnos-cafe.ru,,,,,https://wa.me/79219039660,,,,,,,,59.927589,30.35047,https://2gis.com/firm/70000001023618065
Chang x Kuta,кафе аутентичной тайской кухни,Кафе; Доставка готовых блюд; Пекарни,"улица Некрасова, 1/38",1 этаж,191014,Литейный,Центральный район,Санкт-Петербург,,Санкт-Петербург,Россия,Пн: 09:00-23:00; Вт: 09:00-23:00; Ср: 09:00-23:00; Чт: 09:00-23:00; Пт: 09:00-23:00; Сб: 09:00-23:00; Вс: 09:00-23:00,+03:00,4.5,104,89110135330,,,changnekrasova@gmail.com,,http://changcafe.ru,,,,https://vk.com/changcafe,,,,,,,,,59.938897,30.349258,https://2gis.com/firm/70000001065161765
Sowa,,Кофейни; Кафе; Продажа кофе,"Жуковского, 47",1 этаж,191014,Литейный,Центральный район,Санкт-Петербург,,Санкт-Петербург,Россия,Пн: 09:00-22:00; Вт: 09:00-22:00; Ср: 09:00-22:00; Чт: 09:00-22:00; Пт: 09:00-23:00; Сб: 11:00-23:00; Вс: 11:00-23:00,+03:00,4.9,73,89633405806,,,k55688@yandex.ru,,http://sowa-cafe.tilda.ws,,,,,https://wa.me/79633405806,,,,,https://t.me/sowaspb,,,59.935727,30.358882,https://2gis.com/firm/70000001066912578
Loft,лаундж-бар,Кафе; Бары,"Рыбацкий проспект, 23 к2",1 этаж,192076,Рыбацкое,Невский район,Санкт-Петербург,,Санкт-Петербург,Россия,Пн: 14:00-02:00; Вт: 14:00-02:00; Ср: 14:00-02:00; Чт: 14:00-02:00; Пт: 14:00-02:00; Сб: 14:00-02:00; Вс: 14:00-02:00,+03:00,4.6,27,89217779913,,,loft.torg@mail.ru,,http://loft.qr-cafe.ru/,,,,https://vk.com/loft.ribatskoe,,,,,,https://t.me/Loft_rybatskoe_bot,,,59.840446,30.501478,https://2gis.com/firm/70000001035964378
Блин`Ок,крафт-кафе,Кафе,"Петровская, 17",1 этаж,197762,Кронштадт г.,Кронштадтский район,Санкт-Петербург,,Санкт-Петербург,Россия,Пн: 10:00-19:00; Вт: 10:00-19:00; Ср: 10:00-19:00; Чт: 10:00-19:00; Пт: 10:00-19:00; Сб: 10:00-19:00; Вс: 10:00-19:00,+03:00,4.5,193,,,,,,http://cafe-blinok.qr-cafe.ru,,,,https://vk.com/blinok_kron,,,,,,,,,59.988481,29.771977,https://2gis.com/firm/70000001055164733
Суарэ,бар-ресторан,Бары; Караоке-залы; Кафе,"Жуковского, 28",цокольный этаж,191014,Литейный,Центральный район,Санкт-Петербург,,Санкт-Петербург,Россия,Пн: 11:00-05:00; Вт: 11:00-05:00; Ср: 11:00-05:00; Чт: 11:00-05:00; Пт: 11:00-05:00; Сб: 12:00-05:00; Вс: 12:00-05:00 (по предварительной записи: пн-вс),+03:00,4.6,211,89112578343,,,msoiree@yandex.ru,,http://spbbar.net,,,,,,,,,,,,,59.93594,30.360029,https://2gis.com/firm/5348552838497324
Дуду лапша,ресторан китайской кухни,Кафе; Доставка готовых блюд,"проспект Добролюбова, 23",цокольный этаж,197198,Введенский,Петроградский район,Санкт-Петербург,,Санкт-Петербург,Россия,Пн: 11:30-22:30; Вт: 11:30-22:30; Ср: 11:30-22:30; Чт: 11:30-22:30; Пт: 11:30-22:30; Сб: 11:30-22:30; Вс: 11:30-22:30,+03:00,4.5,155,89643223013,,,,,,,,,,,,,,,,,,59.950346,30.297763,https://2gis.com/firm/70000001054205774
Вкус искусства,арт-кофейня,Кафе,"Суворовский проспект, 15",1 этаж,191036,Смольнинское,Центральный район,Санкт-Петербург,,Санкт-Петербург,Россия,Пн: 10:00-22:00; Вт: 10:00-22:00; Ср: 10:00-22:00; Чт: 10:00-22:00; Пт: 10:00-22:00; Сб: 10:00-22:00; Вс: 10:00-22:00,+03:00,4.3,129,89110849439,,,marita1978@yandex.ru,,http://vkusiskusstva.ru,http://jivo.chat/PD76VTfDAB,,,https://vk.com/tasteofart_spb,https://wa.me/79110849439,,,,,https://t.me/+79110849439,,,59.93493,30.371265,https://2gis.com/firm/70000001042751783
Мясорубка Angus,бургерная,Доставка готовых блюд; Кафе; Быстрое питание,"Литейный проспект, 31",1 этаж,191028,Литейный,Центральный район,Санкт-Петербург,,Санкт-Петербург,Россия,Пн: 11:00-23:00; Вт: 11:00-23:00; Ср: 11:00-23:00; Чт: 11:00-23:00; Пт: 11:00-01:00; Сб: 11:00-01:00; Вс: 11:00-23:00,+03:00,4.8,241,88122727788,,,redangus01@yandex.ru,,http://myasorubka.spb.ru,,,,https://vk.com/myasorubka_true,,,,,,,,,59.941475,30.348172,https://2gis.com/firm/70000001042046208
Гетап,кафе,Кафе; Доставка готовых блюд; Организация и проведение праздников; Банкетные залы,"улица Дыбенко, 9 к1",1 этаж,193230,Муниципальный округ №54,Невский район,Санкт-Петербург,,Санкт-Петербург,Россия,Пн: 11:00-23:00; Вт: 11:00-23:00; Ср: 11:00-23:00; Чт: 11:00-23:00; Пт: 11:00-23:00; Сб: 11:00-23:00; Вс: 11:00-23:00,+03:00,4.8,18,89119279326,89650980879,,efimichkafe@mail.ru,,,,,,,,,,,,https://t.me/sergovitiy,,,59.90105,30.461112,https://2gis.com/firm/5348552841392433
Lunar bakery,кафе,Кафе; Пекарни; Кофейни; Доставка готовых блюд; Кондитерские изделия,"Моисеенко, 24",1 этаж,191144,Смольнинское,Центральный район,Санкт-Петербург,,Санкт-Петербург,Россия,Пн: 08:30-21:00; Вт: 08:30-21:00; Ср: 08:30-21:00; Чт: 08:30-21:00; Пт: 08:30-21:00; Сб: 08:30-21:00; Вс: 08:30-21:00,+03:00,4.7,15,89213819313,,,lunarpekarna@gmail.com,,,,,,https://vk.com/lunarbakery,https://wa.me/79213819313,,,viber://chat/?number=79213819313,,,,,59.937595,30.389938,https://2gis.com/firm/70000001079603289
Кофейня №1,,Кафе; Доставка готовых блюд; Рестораны,"Невский проспект, 54",1 этаж,191023,Дворцовый,Центральный район,Санкт-Петербург,,Санкт-Петербург,Россия,Пн: 10:00-23:00; Вт: 10:00-23:00; Ср: 10:00-23:00; Чт: 10:00-23:00; Пт: 10:00-02:00; Сб: 10:00-02:00; Вс: 10:00-23:00,+03:00,4.2,277,88129299454,,,help@delmar-group.ru,,http://delmar-spb.ru/restorany/?v=kofeynya-1,,,,https://vk.com/coffeen1,,,,,,,,,59.934384,30.336037,https://2gis.com/firm/70000001035536003
Chloe Cafe,кафе,Кафе; Рестораны; Доставка готовых блюд,"Чайковского, 50",1 этаж,191123,Смольнинское,Центральный район,Санкт-Петербург,,Санкт-Петербург,Россия,Пн: 09:00-23:00; Вт: 09:00-23:00; Ср: 09:00-23:00; Чт: 09:00-23:00; Пт: 09:00-23:00; Сб: 09:00-23:00; Вс: 09:00-23:00,+03:00,4.2,49,89650680008,,,info@cafechloeconcept.ru,,http://cafechloeconcept.ru,,,,https://vk.com/cafechloespb,https://wa.me/79650680008,,,viber://chat/?number=79650680008,,https://t.me/Cafechloespb,,https://youtube.com/channel/UCs7jM2asqr74avbdZe9wmzw,59.94656,30.363082,https://2gis.com/firm/70000001061311210
Doski,бар-ресторан,Ночные клубы; Бары; Караоке-залы; Кафе; Рестораны,"улица Звенигородская, 1 к2",3 этаж,191119,Семёновский,Адмиралтейский район,Санкт-Петербург,,Санкт-Петербург,Россия,Пн: 12:00-06:00; Вт: 12:00-06:00; Ср: 12:00-06:00; Чт: 12:00-06:00; Пт: 12:00-06:00; Сб: 12:00-06:00; Вс: 12:00-06:00,+03:00,4.1,1473,88129058555 (служба бронирования и доставки),,,,,http://www.bardoski.ru,,,,https://vk.com/bardoski,https://wa.me/79213374742,https://wa.me/79213374240,,,,,,,59.922348,30.335726,https://2gis.com/firm/5348552840836522
Цейлон,стритфуд-кафе,Кафе; Быстрое питание; Безалкогольные напитки,"Гражданский проспект, 39Б",,195220,Гражданка,Калининский район,Санкт-Петербург,,Санкт-Петербург,Россия,Пн: 11:00-23:00; Вт: 11:00-23:00; Ср: 11:00-23:00; Чт: 11:00-23:00; Пт: 11:00-23:00; Сб: 11:00-23:00; Вс: 11:00-23:00,+03:00,5.0,33,89111020008,,,Bardos@yandex.ru,,,,,,https://vk.com/ceylonfood,https://wa.me/79111020008,,,,,https://t.me/+7-911-102-00-08,,,60.01019,30.3956,https://2gis.com/firm/70000001074753766
Хинкальная Gogi,сеть грузинских ресторанов,Кафе; Доставка готовых блюд; Рестораны,"Невский проспект, 54",цокольный этаж,191023,Дворцовый,Центральный район,Санкт-Петербург,,Санкт-Петербург,Россия,Пн: 11:30-24:00; Вт: 11:30-24:00; Ср: 11:30-24:00; Чт: 11:30-24:00; Пт: 11:30-24:00; Сб: 11:30-24:00; Вс: 11:30-24:00,+03:00,4.3,406,88129323252,,,khinkalnayagogi@gmail.com,,http://khinkalnayagogi.com,,,,https://vk.com/khinkalnayagogi,,,,,,,,,59.934251,30.337169,https://2gis.com/firm/70000001039478193
Добрый Грузин,сеть ресторанов,Рестораны; Доставка готовых блюд; Кафе; Банкетные залы; Бары,"Невский проспект, 111/3",1 этаж,191036,Лиговка-Ямская,Центральный район,Санкт-Петербург,,Санкт-Петербург,Россия,Пн: 12:00-01:00; Вт: 12:00-01:00; Ср: 12:00-01:00; Чт: 12:00-01:00; Пт: 12:00-01:00; Сб: 12:00-01:00; Вс: 12:00-01:00,+03:00,4.4,355,89210972525 (служба доставки: пн-вс 12:00-1:00),88126797766 (единый номер: пн-вс 12:00-1:00),,,,http://dobriygruzin.ru,,,,https://vk.com/dobriygruzin,,,,,,,,,59.928252,30.370777,https://2gis.com/firm/70000001018693463
Декабрист,кафе европейской и домашней кухни,Кафе,"Якубовича, 2",,190121,Адмиралтейский,Адмиралтейский район,Санкт-Петербург,,Санкт-Петербург,Россия,Пн: 09:00-23:00; Вт: 09:00-23:00; Ср: 09:00-23:00; Чт: 09:00-23:00; Пт: 09:00-23:00; Сб: 09:00-23:00; Вс: 09:00-23:00,+03:00,4.3,255,88129121891,,,,,http://www.decabrist.net,,,,,,,,,,,,,59.933737,30.303368,https://2gis.com/firm/5348553838658840
Империал,кафе-ресторан,Кафе; Рестораны; Доставка готовых блюд; Суши-бары,"Смоленская, 1",1 этаж,196084,Московская застава,Московский район,Санкт-Петербург,,Санкт-Петербург,Россия,Пн: 11:00-24:00; Вт: 11:00-24:00; Ср: 11:00-24:00; Чт: 11:00-24:00; Пт: 11:00-24:00; Сб: 12:00-24:00; Вс: 12:00-24:00,+03:00,4.5,113,89117871999,88126791999,89112161617,cafegrand98@yandex.ru,,http://cafeimperial.ru,,,,https://vk.com/cafeimperialspb,https://wa.me/79112161617,,,viber://chat/?number=79112161617,,https://t.me/+79119454772,,,59.903799,30.319758,https://2gis.com/firm/5348552841707409
Юи,кафе,Бары; Доставка готовых блюд; Кафе; Суши-бары,"Стрельнинская, 2 лит В",1 этаж,197198,Петровский,Петроградский район,Санкт-Петербург,,Санкт-Петербург,Россия,Пн: 12:00-23:00; Вт: 12:00-23:00; Ср: 12:00-23:00; Чт: 12:00-23:00; Пт: 12:00-23:00; Сб: 12:00-23:00; Вс: 12:00-23:00 (до последнего гостя: пт-вс),+03:00,4.7,107,89643931300,,,yii.cuisine@gmail.com,,http://yitasty.ru,http://t.me/yitasty,,,,,,,,,,,,59.959355,30.299848,https://2gis.com/firm/70000001033560892
Bros Burritos,ресторан быстрого питания,Кафе; Быстрое питание,"Гороховая, 57",1 этаж,190031,Сенной,Адмиралтейский район,Санкт-Петербург,,Санкт-Петербург,Россия,Пн: 11:00-23:00; Вт: 11:00-23:00; Ср: 11:00-23:00; Чт: 11:00-23:00; Пт: 11:00-23:30; Сб: 11:00-23:30; Вс: 11:00-23:00,+03:00,4.5,297,88124580150,,,brosburritos@gmail.com,,http://brosburritos.ru,,,,https://vk.com/brosburritos,,,,,,,,,59.925944,30.325614,https://2gis.com/firm/70000001023908727
Mollie`s Mews,пивной паб,Бары; Кафе,"улица Большая Конюшенная, 5",цокольный этаж,191186,Дворцовый,Центральный район,Санкт-Петербург,,Санкт-Петербург,Россия,Пн: 12:00-02:00; Вт: 12:00-02:00; Ср: 12:00-02:00; Чт: 12:00-02:00; Пт: 12:00-03:00; Сб: 12:00-03:00; Вс: 12:00-02:00,+03:00,4.5,192,88125715171,,,mollymews@molly.su,,http://molliesmews.ru,,,,https://vk.com/mollies_group,,,,,,,,,59.9401,30.323856,https://2gis.com/firm/5348552840698446
Хачапури тетушки Марико,ресторан грузинской кухни,Рестораны; Доставка готовых блюд; Кафе,"улица Малая Садовая, 3/54",1 этаж,191023,Дворцовый,Центральный район,Санкт-Петербург,,Санкт-Петербург,Россия,Пн: 12:00-24:00; Вт: 12:00-24:00; Ср: 12:00-24:00; Чт: 12:00-24:00; Пт: 12:00-02:00; Сб: 12:00-02:00; Вс: 12:00-24:00,+03:00,4.9,2198,89119207290,,,marikospb1@yandex.ru,,http://vhachapuri.ru,,,,https://vk.com/hachapuri__spb,,,,,,,,,59.934985,30.337533,https://2gis.com/firm/70000001035996741
Ода,кафе грузинской кухни,Кафе,"Измайловский проспект, 5",1 этаж,190005,Измайловское,Адмиралтейский район,Санкт-Петербург,,Санкт-Петербург,Россия,Пн: 11:00-23:00; Вт: 11:00-23:00; Ср: 11:00-23:00; Чт: 11:00-23:00; Пт: 11:00-23:00; Сб: 11:00-23:00; Вс: 11:00-23:00,+03:00,4.5,47,89657643274,89117078359,,,,,,,,,,,,viber://chat/?number=79657643274,,https://t.me/+79657643274,,,59.917676,30.307257,https://2gis.com/firm/70000001025916617
Feromon Bolshoy Prospekt,лаундж-бар,Центры паровых коктейлей; Бары; Антикафе; Кафе; Табачные изделия / Товары для курения,"Большой проспект П.С., 82",1-2 этаж,197136,Аптекарский остров,Петроградский район,Санкт-Петербург,,Санкт-Петербург,Россия,Пн: 12:00-06:00; Вт: 12:00-06:00; Ср: 12:00-06:00; Чт: 12:00-06:00; Пт: 12:00-06:00; Сб: 12:00-06:00; Вс: 12:00-06:00,+03:00,4.6,46,89211818111,,,info@feromon.group,smm@feromon.group,http://feromon.group/?utm_source=2gis&utm_campaign=none,,,,https://vk.com/feromongroup,https://wa.me/79211818111,,,,,https://t.me/feromongroup,,,59.96409,30.308984,https://2gis.com/firm/70000001066074397
Hm.wait lounge,центр паровых коктейлей,Центры паровых коктейлей; Кафе; Бары,"Скандинавский проезд, 2",1 этаж,188678,Центральный м-н,,Мурино,Всеволожский муниципальный район,Ленинградская область,Россия,Пн: 12:00-02:00; Вт: 12:00-02:00; Ср: 12:00-02:00; Чт: 12:00-02:00; Пт: 12:00-02:00; Сб: 12:00-02:00; Вс: 12:00-02:00,+03:00,4.9,67,88126042444,,,Waitlounge@yandex.ru,,http://hmwaitbar.ru/#rec538606566,,,,,,,,,,https://t.me/hmwaitlounge,,,60.053399,30.447156,https://2gis.com/firm/70000001040060052
Liman,кафе,Кафе; Рестораны; Пиццерии; Доставка готовых блюд,"Владимирский проспект, 8",1 этаж,191025,Владимирский,Центральный район,Санкт-Петербург,,Санкт-Петербург,Россия,Пн: 11:00-23:00; Вт: 11:00-23:00; Ср: 11:00-23:00; Чт: 11:00-23:00; Пт: 11:00-01:00; Сб: 11:00-01:00; Вс: 11:00-23:00,+03:00,4.9,286,88127603496,,,liman.restspb@gmail.com,,http://delivery.liman-spb.ru/,,,,https://vk.com/cafeliman,,,,,,,,,59.930954,30.348067,https://2gis.com/firm/70000001057352151
Питание+,столово-обеденный комплекс,Кафе; Столовые,"17-я линия В.О., 22 лит В",1 этаж,199178,Муниципальный округ №7,Василеостровский район,Санкт-Петербург,,Санкт-Петербург,Россия,Пн: 08:30-19:00; Вт: 08:30-19:00; Ср: 08:30-19:00; Чт: 08:30-19:00; Пт: 08:30-19:00,+03:00,4.5,71,89217734500,,,stolovaia10@mail.ru,,,,,,,,,,,,,,,59.938406,30.266874,https://2gis.com/firm/70000001026051160
Turk o`clock,кафе быстрого обслуживания,Быстрое питание; Доставка готовых блюд; Кондитерские изделия; Кафе,"набережная реки Фонтанки, 60",цокольный этаж,191002,Владимирский,Центральный район,Санкт-Петербург,,Санкт-Петербург,Россия,Пн: 11:00-21:00; Вт: 11:00-21:00; Ср: 11:00-21:00; Чт: 11:00-21:00; Пт: 11:00-21:00; Сб: 11:00-21:00; Вс: 11:00-21:00,+03:00,4.7,127,89505839933,,,turkoclock@gmail.com,,http://Turk-oclock.ru,,,,https://vk.com/turkoclock,https://wa.me/79505839933,,,,,https://t.me/+79505839933,,,59.929115,30.338722,https://2gis.com/firm/70000001035515911
Finnegan`s Wake Irish Pub,бар,Бары; Банкетные залы; Доставка готовых блюд; Кафе,"Московский проспект, 192",1 этаж,196070,Московская застава,Московский район,Санкт-Петербург,,Санкт-Петербург,Россия,Пн: 12:00-01:00; Вт: 12:00-01:00; Ср: 12:00-01:00; Чт: 12:00-01:00; Пт: 12:00-01:00; Сб: 12:00-01:00; Вс: 12:00-01:00,+03:00,4.4,66,88123375755 (единый номер: пн-вс 12:00-1:00),,,finnegans@yandex.ru,,http://finnegans.ru,,,,https://vk.com/finnegans_pub,,,,,,https://t.me/bootleggersfinnegansgroup,,,59.864049,30.321301,https://2gis.com/firm/5348552838760261
Molly Shelter Pub,пивной паб,Бары; Кафе; Рестораны,"Итальянская, 29",цокольный этаж,191023,Дворцовый,Центральный район,Санкт-Петербург,,Санкт-Петербург,Россия,Пн: 12:00-23:00; Вт: 12:00-23:00; Ср: 12:00-23:00; Чт: 12:00-01:00; Пт: 12:00-02:00; Сб: 12:00-02:00; Вс: 12:00-01:00,+03:00,4.8,163,88123154754,,,mollyshelter@molly.su,,http://mollyshelter.ru,info2gis.tilda.ws/proxy18?target=https://mollyshelter.ru/&back=https://go.2gis.com/dm1a4a&mode=0,,,,,,,,,,,,59.935612,30.339425,https://2gis.com/firm/5348552838479926
Sb burgers,,Доставка готовых блюд; Кафе,"проспект Королёва, 65",1 этаж,197350,Коломяги,Приморский район,Санкт-Петербург,,Санкт-Петербург,Россия,Пн: 11:00-23:00; Вт: 11:00-23:00; Ср: 11:00-23:00; Чт: 11:00-23:00; Пт: 11:00-02:00; Сб: 11:00-02:00; Вс: 11:00-23:00,+03:00,3.9,134,88126848888,89681849888,,marketing@sbburgers.me,,http://sbburgers.ru/?utm_source=maps.2gis&utm_medium=organic%20-,http://sbburgers.ru,,,https://vk.com/sb_burgers,https://wa.me/79681849888,,,,,,,,60.032703,30.241415,https://2gis.com/firm/70000001034804549
Molly Malone Pub,пивной паб,Бары; Кафе; Доставка готовых блюд,"проспект Энгельса, 133 к1",2 этаж,194356,Сергиевское,Выборгский район,Санкт-Петербург,,Санкт-Петербург,Россия,Пн: 12:00-01:00; Вт: 12:00-01:00; Ср: 12:00-01:00; Чт: 12:00-01:00; Пт: 12:00-02:00; Сб: 12:00-02:00; Вс: 12:00-01:00,+03:00,4.4,46,88122960229,,,mollymalone@molly.su,,info2gis.tilda.ws/proxy18?target=https://mollymalonespb.ru/&back=https://go.2gis.com/k78afl&mode=0,http://molly.su,,,https://vk.com/mollies_group,,,,,,,,,60.049729,30.333618,https://2gis.com/firm/70000001046051107
Nem Nem,ресторан Юго-Восточной Азии,Рестораны; Кафе,"1-я линия В.О., 36",1 этаж,199004,Муниципальный округ №7,Василеостровский район,Санкт-Петербург,,Санкт-Петербург,Россия,Пн: 11:00-23:00; Вт: 11:00-23:00; Ср: 11:00-23:00; Чт: 11:00-23:00; Пт: 11:00-23:00; Сб: 11:00-23:00; Вс: 11:00-23:00,+03:00,4.2,119,89657773838,,,restaurant.nemnem57@gmail.com,,http://nemnem.ru,,,,,https://wa.me/79657773838,,,viber://chat/?number=79657773838,,,,,59.944031,30.287387,https://2gis.com/firm/70000001037972049
Артос,кафе,Кафе; Доставка готовых блюд,"улица 3-я Конная Лахта, 2Б",,197229,Лахта-Ольгино,Приморский район,Санкт-Петербург,,Санкт-Петербург,Россия,Пн: 09:00-23:00; Вт: 09:00-23:00; Ср: 09:00-23:00; Чт: 09:00-23:00; Пт: 09:00-23:00; Сб: 09:00-23:00; Вс: 09:00-23:00,+03:00,4.2,9,89117044121,88123187327,,artos89117044121@mail.ru,info@artoscafe.ru,http://shashliki.spb.ru,,,,,https://wa.me/79117044121,,,,,https://t.me/+79117044121,,,60.022157,30.107416,https://2gis.com/firm/70000001036546462
Mollie`s Irish Pub,пивной паб,Бары; Кафе,"Рубинштейна, 36",цокольный этаж,191002,Владимирский,Центральный район,Санкт-Петербург,,Санкт-Петербург,Россия,Пн: 12:00-02:00; Вт: 12:00-02:00; Ср: 12:00-02:00; Чт: 12:00-02:00; Пт: 12:00-03:00; Сб: 12:00-03:00; Вс: 12:00-02:00,+03:00,4.5,169,88125703768,89315885093,,molliespub@molly.su,,info2gis.tilda.ws/proxy18?target=https://molly.su/mollies/&back=https://2gis.ru/spb/firm/70000001046050981&mode=0,,,,,https://wa.me/79315885093,,,,,,,,59.927556,30.34329,https://2gis.com/firm/70000001046050981
Maneki neko ramen bar,,Кафе,"Литейный проспект, 36",1 этаж,191014,Литейный,Центральный район,Санкт-Петербург,,Санкт-Петербург,Россия,Пн: 12:00-23:00; Вт: 12:00-23:00; Ср: 12:00-23:00; Чт: 12:00-23:00; Пт: 12:00-23:00; Сб: 12:00-23:00; Вс: 12:00-23:00,+03:00,4.4,183,89112871717,,,ramenmaneki@gmail.com,,http://ramenbar.tilda.ws,,,,https://vk.com/manekinekoramenbar,https://wa.me/79112871717,,,viber://chat/?number=79112871717,,https://t.me/+79112871717,,,59.939101,30.349253,https://2gis.com/firm/70000001061333273
Bullpen Bar,рестобар,Бары; Кафе; Доставка готовых блюд; Алкогольные напитки,"Дальневосточный проспект, 12 к2",1 этаж,193318,Правобережный,Невский район,Санкт-Петербург,,Санкт-Петербург,Россия,Пн: 15:00-01:00; Вт: 15:00-01:00; Ср: 15:00-01:00; Чт: 15:00-01:00; Пт: 15:00-02:00; Сб: 15:00-02:00; Вс: 15:00-01:00,+03:00,4.6,33,89046158835,,,,,info2gis.tilda.ws/proxy18?target=https://vk.com/bbullpen&back=https://2gis.ru/spb/firm/70000001038785228/30.440301%2C59.913996?m=30.440395%2C59.913935%2F19.67&mode=0 ,info2gis.tilda.ws/proxy18?target=https://t.me/bbullpen&back=https://2gis.ru/spb/firm/70000001038785228/30.440301%2C59.913996?m=30.440395%2C59.913935%2F19.67&mode=0 ,info2gis.tilda.ws/proxy18?target=https://bbullpen.clients.site/&back=https://2gis.ru/spb/firm/70000001038785228/30.440301%2C59.913996?m=30.440395%2C59.913935%2F19.67&mode=0 ,,,https://wa.me/79046397628,,,,,,,,59.913996,30.440301,https://2gis.com/firm/70000001038785228
BBQ Shaverma,сеть кафе быстрого питания,Быстрое питание; Доставка готовых блюд; Кафе,"Большой проспект В.О., 32/12",1 этаж,199034,Муниципальный округ №7,Василеостровский район,Санкт-Петербург,,Санкт-Петербург,Россия,Пн: 11:00-23:00; Вт: 11:00-23:00; Ср: 11:00-23:00; Чт: 11:00-23:00; Пт: 11:00-23:00; Сб: 11:00-23:00; Вс: 11:00-23:00,+03:00,4.6,940,89627171360,,,bbqshaverma@ya.ru,,http://bbqshaverma.ru,,,,https://vk.com/bbqshaverma,,,,,,,,https://youtube.com/@bbqshaverma,59.937176,30.278461,https://2gis.com/firm/70000001028436001
Bristol Pub,пивной паб,Бары; Кафе; Рестораны,"улица Марата, 36-38",1 этаж,191040,Владимирский,Центральный район,Санкт-Петербург,,Санкт-Петербург,Россия,Пн: 12:00-02:00; Вт: 12:00-02:00; Ср: 12:00-02:00; Чт: 12:00-02:00; Пт: 12:00-03:00; Сб: 12:00-03:00; Вс: 12:00-02:00,+03:00,4.6,89,88126556636,,,bristolpub@mail.ru,,http://bristolspb.ru,,,,https://vk.com/bristol_pub,,,,,,https://t.me/bristolpub,,,59.925677,30.352145,https://2gis.com/firm/70000001046051132
MazaPark,парк развлечений,Боулинг; Бильярдные залы; Детские игровые залы / Игротеки; Роллердромы; Аттракционы; Клубы видеоигр; Компьютерные клубы; Спортивно-тактические клубы; Кафе; Караоке-залы; Бары; Автодромы / Мотодромы,"улица Бухарестская, 30",4 этаж,192102,Волковское,Фрунзенский район,Санкт-Петербург,,Санкт-Петербург,Россия,Пн: 12:00-06:00; Вт: 12:00-06:00; Ср: 12:00-06:00; Чт: 12:00-06:00; Пт: 12:00-06:00; Сб: 10:00-06:00; Вс: 10:00-06:00 (караоке-зал: по предварительной записи),+03:00,3.3,562,"88126433333 (единая справочная: пн-пт 11:00-6:00, сб-вс 10:00-6:00)",,,operator@mazapark.com,,http://mazapark.ru/?utm_source=2gis,,,https://twitter.com/maza_park,https://vk.com/mazapark,,,,,,,,https://youtube.com/user/mazapark,59.883591,30.369577,https://2gis.com/firm/5348553838817824
Juju`s cafe,кафе грузинской кухни,Кафе,"Союза Печатников, 28/29",1 этаж,190121,Коломна,Адмиралтейский район,Санкт-Петербург,,Санкт-Петербург,Россия,Вт: 12:00-23:00; Ср: 12:00-23:00; Чт: 12:00-23:00; Пт: 12:00-23:00; Сб: 12:00-23:00; Вс: 12:00-23:00,+03:00,4.8,21,89219053006,,,jujuscafe@mail.ru,,,,,,https://vk.com/cafejujus,https://wa.me/79219053006,,,,,https://t.me/+79312899787,,,59.921905,30.284923,https://2gis.com/firm/70000001020596924
DelicatesClub,магазин морепродуктов для дома и ресторана,Рыба / Морепродукты; Доставка продуктов / хозтоваров; Доставка готовых блюд; Кафе,"улица Якорная, 11",101 офис; 1 этаж,195027,Большая Охта,Красногвардейский район,Санкт-Петербург,,Санкт-Петербург,Россия,Пн: 10:00-22:00; Вт: 10:00-22:00; Ср: 10:00-22:00; Чт: 10:00-22:00; Пт: 10:00-22:00; Сб: 11:00-22:00; Вс: 11:00-22:00,+03:00,4.7,12,88122422224 (единый номер: пн-вс 10:00-22:00),88126298573 (офис: пн-вс 10:00-18:00),,sale@delicatesclub.ru,,http://www.delicatesclub.ru,http://jivo.chat/EChZ6JYZ6Z,,,https://vk.com/delicates.club,https://wa.me/79319711821,,,,,https://t.me/+79319711821,,https://youtube.com/channel/UCJyYCjGU4A-wBo5uUC2B24A,59.943044,30.432721,https://2gis.com/firm/5348552841438143
Tootsie,мясной ресторан,Рестораны; Бары; Кафе; Доставка готовых блюд,"9-я линия В.О., 30",1 этаж,199004,Муниципальный округ №7,Василеостровский район,Санкт-Петербург,,Санкт-Петербург,Россия,Пн: 12:00-23:00; Вт: 12:00-23:00; Ср: 12:00-23:00; Чт: 12:00-23:00; Пт: 12:00-23:00; Сб: 12:00-23:00; Вс: 12:00-23:00,+03:00,4.8,196,89626860011,,,team@tootsie.rest,,http://tootsie.rest,http://delivery.tootsie.rest,,,https://vk.com/tootsierest,,,,,,,,,59.94073,30.27771,https://2gis.com/firm/70000001039117611
Балкан,ресторан,Рестораны; Доставка готовых блюд; Кафе,"улица Куйбышева, 26 к2",1-2 этаж,197046,Посадский,Петроградский район,Санкт-Петербург,,Санкт-Петербург,Россия,Пн: 11:00-23:00; Вт: 11:00-23:00; Ср: 11:00-23:00; Чт: 11:00-23:00; Пт: 11:00-01:00; Сб: 11:00-01:00; Вс: 11:00-23:00,+03:00,4.8,365,89217959115,,,info@balkanresto.ru,,http://balkanresto.ru,,,,https://vk.com/balkanresto,https://wa.me/79217959115,,,viber://chat/?number=79217959115,,https://t.me/+79217959115,,,59.956718,30.329893,https://2gis.com/firm/70000001041179793
Пенаты на Гороховой,ресторан-кафе,Рестораны; Кафе; Доставка готовых блюд,"Гороховая, 32",цокольный этаж; желтая неоновая вывеска Вегетарианское заведение,191023,Муниципальный округ №78,Центральный район,Санкт-Петербург,,Санкт-Петербург,Россия,Пн: 11:00-23:00; Вт: 11:00-23:00; Ср: 11:00-23:00; Чт: 11:00-23:00; Пт: 11:00-23:00; Сб: 11:00-23:00; Вс: 11:00-23:00,+03:00,4.9,43,89893498986,,,,,http://penatynagorohovoj.clients.site,,,,https://vk.com/penaty_na_gorohovoy,https://wa.me/79893498986,,,,,https://t.me/+79893498986,,,59.929577,30.320612,https://2gis.com/firm/70000001066698251
Medici bistro,итальянский ресторан,Рестораны; Пиццерии; Доставка готовых блюд; Бары; Кафе,"проспект Медиков, 10 к1",1 этаж,197022,Аптекарский остров,Петроградский район,Санкт-Петербург,,Санкт-Петербург,Россия,Пн: 12:00-23:00; Вт: 12:00-23:00; Ср: 12:00-23:00; Чт: 12:00-23:00; Пт: 12:00-01:00; Сб: 12:00-01:00; Вс: 12:00-23:00 (кухня: вс-чт 12:00-22:30; пт-сб 12:00-00:30),+03:00,4.7,175,88129643100,,,medicibistro@gmail.com,,http://medici-delivery.ru/?utm_source=2gis&utm_medium=context&utm_campaign=delivery,http://medici.rest/?utm_source=2gis&utm_medium=context&utm_campaign=site,,,https://vk.com/medici.bistro,,,,,,,,,59.973413,30.315199,https://2gis.com/firm/70000001044143288
Шар-шара,,Кафе; Доставка готовых блюд,"улица Комсомола, 10",цокольный этаж,195009,Финляндский,Калининский район,Санкт-Петербург,,Санкт-Петербург,Россия,Пн: 08:00-23:00; Вт: 08:00-23:00; Ср: 08:00-23:00; Чт: 08:00-23:00; Пт: 08:00-23:00; Сб: 08:00-23:00; Вс: 08:00-23:00,+03:00,4.3,47,89697324747,,,sharkafe@mail.ru,,http://shar-shara.ru,,,,,https://wa.me/79643602525,,,,,,,,59.954287,30.362065,https://2gis.com/firm/70000001037969840
Cоffeelove,кафе,Кафе,"Санкт-Петербургский проспект, 46",цокольный этаж,198510,Петергоф г.,Петродворцовый район,Санкт-Петербург,,Санкт-Петербург,Россия,Пн: 10:00-23:00; Вт: 10:00-23:00; Ср: 10:00-23:00; Чт: 10:00-23:00; Пт: 10:00-23:00; Сб: 10:00-23:00; Вс: 10:00-23:00,+03:00,4.1,172,89118208569,88124507878,,,,,,,,https://vk.com/coffeelovecafe,https://wa.me/79118208569,,,,,,,,59.879919,29.906881,https://2gis.com/firm/70000001018679681
Molly Island Pub,пивной паб,Бары; Кафе; Доставка готовых блюд,"Морская набережная, 15 лит А",цокольный этаж,199226,Морской,Василеостровский район,Санкт-Петербург,,Санкт-Петербург,Россия,Пн: 12:00-02:00; Вт: 12:00-02:00; Ср: 12:00-02:00; Чт: 12:00-02:00; Пт: 12:00-02:00; Сб: 12:00-02:00; Вс: 12:00-01:00,+03:00,4.5,69,88124149996,,,molly-island@molly.su,,info2gis.tilda.ws/proxy18?target=http://www.mollyisland.ru/&back=https://go.2gis.com/qpav48&mode=0,,,,https://vk.com/molly_island,https://wa.me/79531404301,,,,,https://t.me/MollyIsland,,https://youtube.com/channel/UC17KqPqBuw0HYx0Ibm3TQwQ,59.940338,30.214199,https://2gis.com/firm/5348552838760464
Lounge Room,сеть лаундж-баров,Бары; Центры паровых коктейлей; Кафе,"улица Садовая, 11",2 этаж,191011,Дворцовый,Центральный район,Санкт-Петербург,,Санкт-Петербург,Россия,Пн: 13:00-01:00; Вт: 13:00-01:00; Ср: 13:00-01:00; Чт: 13:00-01:00; Пт: 13:00-04:00; Сб: 13:00-04:00; Вс: 13:00-01:00,+03:00,4.6,428,88129989846,,,loungeroom_sadovaya@inbox.ru,,http://lounge-room.ru,,,,https://vk.com/loungeroom_spb,,,,,,https://t.me/loungeroom_spb,,,59.935681,30.335584,https://2gis.com/firm/70000001038085854
F&C,пивной паб,Бары; Кафе; Рестораны,"Новосмоленская набережная, 1 лит Е",1 этаж,199397,Остров Декабристов,Василеостровский район,Санкт-Петербург,,Санкт-Петербург,Россия,Пн: 12:00-23:00; Вт: 12:00-23:00; Ср: 12:00-02:00; Чт: 12:00-02:00; Пт: 12:00-02:00; Сб: 12:00-02:00; Вс: 12:00-01:00,+03:00,4.0,64,88129847172,89626847172,89990416727,Fish.Chips1@yandex.ru,,info2gis.tilda.ws/proxy18?target=https://fcpub.ru/&back=https://2gis.ru/spb/firm/5348553838776392&mode=0,,,,https://vk.com/fishchipsspb,https://wa.me/79626847172,,,,,,,https://youtube.com/channel/UC17KqPqBuw0HYx0Ibm3TQwQ,59.94995,30.224853,https://2gis.com/firm/5348553838776392
Bomu Sushi&Ramen,рамен-бар,Суши-бары; Доставка готовых блюд; Кафе,"Ломоносова, 26",1 этаж,191002,Владимирский,Центральный район,Санкт-Петербург,,Санкт-Петербург,Россия,Пн: 12:00-23:00; Вт: 12:00-23:00; Ср: 12:00-01:00; Чт: 12:00-01:00; Пт: 12:00-01:00; Сб: 12:00-01:00; Вс: 12:00-01:00,+03:00,4.7,296,89992051574,,,feedback@bomu.jp,,http://t.me/bomujp,,,,,,,,,,,,,59.926709,30.341228,https://2gis.com/firm/70000001036974023
Галата,ресторан турецкой кухни,Рестораны; Банкетные залы; Доставка готовых блюд; Кафе; Кондитерские изделия,"Лиговский проспект, 162",1 этаж,192007,Волковское,Фрунзенский район,Санкт-Петербург,,Санкт-Петербург,Россия,Пн: 10:00-22:00; Вт: 10:00-22:00; Ср: 10:00-22:00; Чт: 10:00-22:00; Пт: 10:00-22:00; Сб: 10:00-22:00; Вс: 10:00-22:00,+03:00,4.6,236,89110987301,,,galata.spb@mail.ru,,http://galata-restaurant.ru,,,,https://vk.com/galata_spb,https://wa.me/79110987301,,,,,,,,59.912092,30.349074,https://2gis.com/firm/5348552838581035
NeMollie`s Pub,пивной паб,Бары; Кафе; Рестораны; Доставка готовых блюд,"Английская, 2",2 этаж,188692,,,Кудрово,Всеволожский муниципальный район,Ленинградская область,Россия,Пн: 12:00-24:00; Вт: 12:00-24:00; Ср: 12:00-24:00; Чт: 12:00-24:00; Пт: 12:00-02:00; Сб: 12:00-02:00; Вс: 12:00-24:00,+03:00,4.2,41,88126556585,,,kudrovo@molly.su,,info2gis.tilda.ws/proxy18?target=https://nemollies.ru/&back=https://go.2gis.com/jk6j1&mode=0,,,,https://vk.com/nemollies_restopub,,,,,,https://t.me/nemollies,,,59.90326,30.517178,https://2gis.com/firm/70000001046051141
The Red Corner,гастропаб,Бары; Кафе,"улица Некрасова, 6",1 этаж,191014,Литейный,Центральный район,Санкт-Петербург,,Санкт-Петербург,Россия,Пн: 16:00-02:00; Вт: 16:00-02:00; Ср: 16:00-02:00; Чт: 16:00-02:00; Пт: 16:00-02:00; Сб: 16:00-02:00; Вс: 16:00-02:00,+03:00,4.6,38,89117207484,,,info@hatgroup.ru,,http://hatgroup.ru/the-red-corner/,,,,https://vk.com/theredcornerspb,https://wa.me/79117207484,,,,,,,,59.939067,30.350348,https://2gis.com/firm/70000001030415027
Thai Fun,кафе,Бары; Кафе; Доставка готовых блюд,"набережная канала Грибоедова, 59",1 этаж,190031,Сенной,Адмиралтейский район,Санкт-Петербург,,Санкт-Петербург,Россия,Пн: 12:00-23:00; Вт: 12:00-23:00; Ср: 12:00-23:00; Чт: 12:00-23:00; Пт: 12:00-23:00; Сб: 12:00-23:00; Вс: 12:00-23:00,+03:00,4.7,134,89111396274,,,info@thaifun.ru,,http://thaifun.ru,,,,https://vk.com/thaifunspb,,,,,,https://t.me/thai_fun,,,59.927972,30.314811,https://2gis.com/firm/70000001047542742
Мята Lounge,,Центры паровых коктейлей; Кафе,"Ефимова, 2",4 этаж,190031,Сенной,Адмиралтейский район,Санкт-Петербург,,Санкт-Петербург,Россия,Пн: 11:00-03:00; Вт: 11:00-03:00; Ср: 11:00-03:00; Чт: 11:00-03:00; Пт: 11:00-03:00; Сб: 11:00-03:00; Вс: 11:00-03:00,+03:00,4.6,129,89675659302,,,info@myataofficial.com,,http://myatapik.ru,,,,,,,,,,,,,59.926799,30.321274,https://2gis.com/firm/70000001056003274
Орлёнок,семейное кафе,Кафе,"Орлово-Денисовский проспект, 19 к3 ст1",,197375,Коломяги,Приморский район,Санкт-Петербург,,Санкт-Петербург,Россия,Пн: 08:30-23:00; Вт: 08:30-23:00; Ср: 08:30-23:00; Чт: 08:30-23:00; Пт: 08:30-23:00; Сб: 08:30-23:00; Вс: 08:30-23:00,+03:00,4.7,59,89216461072,,,orlenok.marketing@yandex.ru,,http://orlenok-spb.ru,,,,https://vk.com/orlenok_spb,https://wa.me/79216461072,,,,,https://t.me/orlenok_spb,,,60.055494,30.269592,https://2gis.com/firm/70000001060747303
Pho`n`roll,ресторан азиатской кухни,Доставка готовых блюд; Кафе; Рестораны,"Жуковского, 27",1 этаж,191014,Литейный,Центральный район,Санкт-Петербург,,Санкт-Петербург,Россия,Пн: 12:00-23:00; Вт: 12:00-23:00; Ср: 12:00-23:00; Чт: 12:00-23:00; Пт: 12:00-23:00; Сб: 12:00-23:00; Вс: 12:00-23:00,+03:00,4.2,106,89632423977,,,pr.phonroll@gmail.com,,http://phonrollcafe.ru,http://delivery.phonrollcafe.ru,,,https://vk.com/phonrollcafe,https://wa.me/79632423977,,,viber://chat/?number=79632423977,,https://t.me/+79632423977,,,59.935783,30.355407,https://2gis.com/firm/70000001026013420
Старик Хинкалыч,кафе,Кафе,"Гончарная, 11",1 этаж,191036,Лиговка-Ямская,Центральный район,Санкт-Петербург,,Санкт-Петербург,Россия,Пн: 10:00-23:00; Вт: 10:00-23:00; Ср: 10:00-23:00; Чт: 10:00-23:00; Пт: 10:00-23:00; Сб: 10:00-23:00; Вс: 10:00-23:00,+03:00,4.1,259,89214445230,,,,,http://хинкалыч.рф,,,,https://vk.com/starikhinkalych198,,,,,,https://t.me/hello_hinkalych,,,59.929564,30.364879,https://2gis.com/firm/70000001060075387
Kwakinn,паб,Бары; Кафе; Доставка готовых блюд,"Большой проспект В.О., 37",цокольный этаж,199178,Муниципальный округ №7,Василеостровский район,Санкт-Петербург,,Санкт-Петербург,Россия,Пн: 12:00-01:00; Вт: 12:00-01:00; Ср: 12:00-01:00; Чт: 12:00-01:00; Пт: 12:00-02:00; Сб: 12:00-02:00; Вс: 12:00-01:00,+03:00,4.2,51,88129529059,,,kwakinn@list.ru,,http://kwakinn.ru,,,,https://vk.com/kwakinnpub,,,,,,,,,59.938249,30.278008,https://2gis.com/firm/5348552839684698
Фиш&Чипс,рестопаб,Бары; Кафе,"Восстания, 34",цокольный этаж,191014,Литейный,Центральный район,Санкт-Петербург,,Санкт-Петербург,Россия,Пн: 12:00-23:00; Вт: 12:00-23:00; Ср: 12:00-23:00; Чт: 12:00-23:00; Пт: 12:00-02:00; Сб: 12:00-02:00; Вс: 12:00-23:00,+03:00,4.6,126,88127198742,,,,,info2gis.tilda.ws/proxy18?target=https://www.fcspb.ru/&back=https://go.2gis.com/usr24&mode=0,,,,https://vk.com/fishchips2,,,,,,,,,59.940817,30.360338,https://2gis.com/firm/70000001021675068
Влаваше,,Быстрое питание; Кафе,"Пулковская, 10 к2",слева от пекарни Булочные Ф. Вольчека,196142,Звездное,Московский район,Санкт-Петербург,,Санкт-Петербург,Россия,Пн: 00:00-24:00; Вт: 00:00-24:00; Ср: 00:00-24:00; Чт: 00:00-24:00; Пт: 00:00-24:00; Сб: 00:00-24:00; Вс: 00:00-24:00,+03:00,4.5,42,88123174777,,,vlavashe@vlavashe.ru,,http://vlavashe.ru,,,,https://vk.com/vsevlavashe,,,,,,,,,59.836038,30.352124,https://2gis.com/firm/70000001078740279
Лаборатория 31,химический бар,Ночные клубы; Бары; Кафе; Центры паровых коктейлей,"Гороховая, 31",цокольный этаж,190031,Сенной,Адмиралтейский район,Санкт-Петербург,,Санкт-Петербург,Россия,Пн: 15:00-06:00; Вт: 15:00-06:00; Ср: 15:00-06:00; Чт: 15:00-06:00; Пт: 15:00-06:00; Сб: 15:00-06:00; Вс: 15:00-06:00 (по предварительному звонку: пн-вс),+03:00,4.9,3630,89817373555,,,laborbar31@yandex.ru,,http://31cn.ru,,,,,https://wa.me/79817373555,,,viber://chat/?number=79817373555,,https://t.me/+79817373555,,,59.930056,30.319457,https://2gis.com/firm/70000001021816254
Кальян Хочу,лаундж-бар,Центры паровых коктейлей; Кафе; Бары,"переулок Бринько, 2",цокольный этаж,190031,Сенной,Адмиралтейский район,Санкт-Петербург,,Санкт-Петербург,Россия,Пн: 12:00-06:00; Вт: 12:00-06:00; Ср: 12:00-06:00; Чт: 12:00-06:00; Пт: 12:00-06:00; Сб: 12:00-06:00; Вс: 12:00-06:00,+03:00,4.8,207,89818080088,,,kalyanhochu.lounge@yandex.ru,,info2gis.tilda.ws/proxy18?target=https://vk.com/public211214445&back=https://2gis.ru/spb/firm/70000001046149686&mode=0 ,,,,,https://wa.me/79818080088,,,,,https://t.me/+79818080088,,,59.925675,30.316875,https://2gis.com/firm/70000001033647954
Бирвайн,кафе быстрого питания и магазин разливного пива,Бары; Кафе; Алкогольные напитки; Быстрое питание,"улица Наличная, 44",цокольный этаж,199397,Остров Декабристов,Василеостровский район,Санкт-Петербург,,Санкт-Петербург,Россия,Пн: 09:00-23:00; Вт: 09:00-23:00; Ср: 09:00-23:00; Чт: 09:00-23:00; Пт: 09:00-01:00; Сб: 09:00-01:00; Вс: 09:00-23:00,+03:00,4.3,102,89990048201,,,,,http://birwain.ru,info2gis.tilda.ws/proxy18?target=https://vk.com/birvine_spb&back=https://2gis.ru/spb/firm/70000001063719372&mode=0,,,,,,,,,,,,59.951835,30.233124,https://2gis.com/firm/70000001063719372
Look,,Центры паровых коктейлей; Кафе; Антикафе; Бары; Доставка готовых блюд,"Невский проспект, 20",2 этаж,191186,Дворцовый,Центральный район,Санкт-Петербург,,Санкт-Петербург,Россия,Пн: 12:00-06:00; Вт: 12:00-06:00; Ср: 12:00-06:00; Чт: 12:00-06:00; Пт: 12:00-06:00; Сб: 12:00-06:00; Вс: 12:00-06:00,+03:00,4.8,280,89119269020,,,lookloungespb@gmail.com,,http://looklounge.ru,,,,https://vk.com/looklounge,https://wa.me/79119269020,,,,,https://t.me/+79119269020,,,59.936434,30.321698,https://2gis.com/firm/70000001036315522
Сидрерия,бар,Бары; Кафе,"Моховая, 30",1 этаж,191028,Литейный,Центральный район,Санкт-Петербург,,Санкт-Петербург,Россия,Пн: 12:00-01:00; Вт: 12:00-01:00; Ср: 12:00-01:00; Чт: 12:00-01:00; Пт: 12:00-03:00; Сб: 12:00-03:00; Вс: 12:00-01:00,+03:00,4.4,382,89219946752,,,sidreria.m@gmail.com,sidreria.spb@yandex.ru,,,,,https://vk.com/sidreria,,,,,,https://t.me/spbsidreria,,,59.941435,30.345441,https://2gis.com/firm/70000001006172980
Petruccio. Pizza&Pasta,,Пиццерии; Кафе,"Невский проспект, 47",1 этаж,191025,Владимирский,Центральный район,Санкт-Петербург,,Санкт-Петербург,Россия,Пн: 10:00-22:00; Вт: 10:00-22:00; Ср: 10:00-22:00; Чт: 10:00-22:00; Пт: 10:00-22:00; Сб: 10:00-22:00; Вс: 10:00-22:00,+03:00,4.6,40,89312561818,,,spb@cafepetruccio.ru,,http://spb.cafepetruccio.ru,,,,https://vk.com/ilovepetruccio,https://wa.me/79312561818,,,,,,,,59.932252,30.347594,https://2gis.com/firm/70000001076545408
Vaffel,кафе,Доставка готовых блюд; Кафе,"Восстания, 55",1 этаж,191123,Смольнинское,Центральный район,Санкт-Петербург,,Санкт-Петербург,Россия,Пн: 10:00-22:00; Вт: 10:00-22:00; Ср: 10:00-22:00; Чт: 10:00-22:00; Пт: 10:00-22:00; Сб: 10:00-22:00; Вс: 10:00-22:00,+03:00,4.1,257,88129249820,,,,,http://vaffel.ru,,,,,,,,,,https://t.me/vaffel55,,,59.943232,30.360954,https://2gis.com/firm/70000001023691006
Go Vegan,веган-кафе,Доставка готовых блюд; Кафе,"Загородный проспект, 12",1 этаж,191002,Владимирский,Центральный район,Санкт-Петербург,,Санкт-Петербург,Россия,Пн: 00:00-24:00; Вт: 00:00-24:00; Ср: 00:00-24:00; Чт: 00:00-24:00; Пт: 00:00-24:00; Сб: 00:00-24:00; Вс: 00:00-24:00,+03:00,4.2,176,89052222345,,,validko@mail.ru,,,,,,https://vk.com/club201146860,https://wa.me/79052222345,,,,,,,,59.926777,30.344309,https://2gis.com/firm/70000001046704194
Polly MacMolly,рестопаб,Бары; Кафе,"улица Оптиков, 34 к1",2 этаж,197345,Муниципальный округ №65,Приморский район,Санкт-Петербург,,Санкт-Петербург,Россия,Пн: 12:00-02:00; Вт: 12:00-02:00; Ср: 12:00-02:00; Чт: 12:00-02:00; Пт: 12:00-03:00; Сб: 12:00-03:00; Вс: 12:00-01:00,+03:00,4.8,121,89213815755,,,pollymacmolly@yandex.ru,,http://pollypub.ru,,,,https://vk.com/pollymacmolly,,,,,,,,,59.99998,30.215179,https://2gis.com/firm/70000001066426216
Мама Тата,грузинская неорюмочная,Кафе; Банкетные залы; Бары; Рюмочные,"Караванная, 8",1 этаж,191023,Дворцовый,Центральный район,Санкт-Петербург,,Санкт-Петербург,Россия,Пн: 12:00-24:00; Вт: 12:00-24:00; Ср: 12:00-24:00; Чт: 12:00-24:00; Пт: 12:00-24:00; Сб: 12:00-24:00; Вс: 12:00-24:00,+03:00,4.8,432,89112582376,,,matamata_roast@bk.ru,,http://mama-tata.ru,http://t.me/mamatataspb,,,https://vk.com/mamatataspb,https://wa.me/79112582376,,,,,,,,59.936815,30.341708,https://2gis.com/firm/70000001052050960
Ketch up,ресторан,Доставка готовых блюд; Кафе,"Литейный проспект, 59",1 этаж,191014,Литейный,Центральный район,Санкт-Петербург,,Санкт-Петербург,Россия,Пн: 11:00-23:00; Вт: 11:00-23:00; Ср: 11:00-23:00; Чт: 11:00-23:00; Пт: 11:00-23:00; Сб: 11:00-23:00; Вс: 11:00-23:00,+03:00,4.4,242,89219991301,,,info@ketch-up.ru,,http://ketch-up.ru,,,,https://vk.com/ketchup_spb,,,,,,,,,59.934068,30.347712,https://2gis.com/firm/70000001006619235
Белый налив,,Бары; Кафе,"Гороховая, 49 лит Б",1 этаж,190031,Сенной,Адмиралтейский район,Санкт-Петербург,,Санкт-Петербург,Россия,Пн: 12:00-01:00; Вт: 12:00-01:00; Ср: 12:00-01:00; Чт: 12:00-01:00; Пт: 12:00-03:00; Сб: 12:00-03:00; Вс: 12:00-01:00,+03:00,4.4,33,89030999331,,,beliynalivbar@yandex.ru,,http://beliynaliv.ru,,,,https://vk.com/beliynalivbar,,,,,,,,,59.92625,30.322828,https://2gis.com/firm/70000001069166282
Русские традиции,кафе,Кафе; Столовые; Доставка готовых блюд,"17-я линия В.О., 4",,199034,Муниципальный округ №7,Василеостровский район,Санкт-Петербург,,Санкт-Петербург,Россия,Пн: 09:00-18:00; Вт: 09:00-18:00; Ср: 09:00-18:00; Чт: 09:00-18:00; Пт: 09:00-18:00,+03:00,4.2,5,89626844064,,,rt_razvitie@rt-cafe.com,,http://obed-online.ru,,,,,,,,,,,,,59.933082,30.273063,https://2gis.com/firm/70000001077911625
Molly O`Brian Pub,рестопаб,Бары; Кафе; Рестораны,"Ленинский проспект, 87 к1",1 этаж,198330,Юго-Запад,Красносельский район,Санкт-Петербург,,Санкт-Петербург,Россия,Пн: 12:00-02:00; Вт: 12:00-02:00; Ср: 12:00-02:00; Чт: 12:00-02:00; Пт: 12:00-02:00; Сб: 12:00-02:00; Вс: 12:00-01:00,+03:00,4.6,56,88123643599,,,molly.obrian@molly.su,,info2gis.tilda.ws/proxy18?target=https://mollyobrian.ru/&back=https://go.2gis.com/35xe43&mode=0,,,,https://vk.com/mollies_group,,,,,,,,https://youtube.com/channel/UC17KqPqBuw0HYx0Ibm3TQwQ,59.855019,30.202325,https://2gis.com/firm/70000001046051065
Астара,ресторан восточной и европейской кухни,Рестораны; Банкетные залы; Доставка готовых блюд; Кафе; Организация и проведение праздников,"Русановская улица, 1 к2",,193149,Народный,Невский район,Санкт-Петербург,,Санкт-Петербург,Россия,Пн: 11:00-02:00; Вт: 11:00-02:00; Ср: 11:00-02:00; Чт: 11:00-02:00; Пт: 11:00-04:00; Сб: 11:00-04:00; Вс: 11:00-04:00 (до последнего гостя),+03:00,3.3,3,89810458762,,,astara.spb@mail.ru,,http://rest-astara.ru,,,,,https://wa.me/79810458762,,,,,,,,59.86233,30.495193,https://2gis.com/firm/70000001078836005
Paradnaya Lounge Bar,лаундж-бар,Бары; Кафе,"Казанская, 7 лит В",1 этаж,191186,Муниципальный округ №78,Центральный район,Санкт-Петербург,,Санкт-Петербург,Россия,Пн: 13:00-01:00; Вт: 13:00-01:00; Ср: 13:00-01:00; Чт: 13:00-01:00; Пт: 13:00-05:00; Сб: 13:00-05:00; Вс: 13:00-01:00,+03:00,4.7,11,89213305511,,,,,http://paradnayalounge.ru,,,,,https://wa.me/79213305511,,,,,https://t.me/+79213305511,,,59.93232,30.320153,https://2gis.com/firm/70000001066723477
Старые кони,бар,Бары; Рюмочные; Кафе,"Казанская, 29",1 этаж,190031,Сенной,Адмиралтейский район,Санкт-Петербург,,Санкт-Петербург,Россия,Пн: 12:00-02:00; Вт: 12:00-02:00; Ср: 12:00-02:00; Чт: 12:00-02:00; Пт: 12:00-02:00; Сб: 12:00-02:00; Вс: 12:00-02:00,+03:00,4.6,64,89313360257,,,,,http://taplink.cc/starye_koni,,,,,,,,,,,,,59.929544,30.313202,https://2gis.com/firm/70000001062712338
The Office Pub,пивной паб,Бары; Кафе; Доставка готовых блюд,"Казанская, 5",1 этаж,191186,Муниципальный округ №78,Центральный район,Санкт-Петербург,,Санкт-Петербург,Россия,Пн: 12:00-02:00; Вт: 12:00-02:00; Ср: 12:00-02:00; Чт: 12:00-02:00; Пт: 12:00-02:00; Сб: 12:00-02:00; Вс: 12:00-02:00,+03:00,4.8,165,88125715428,,,officepub@molly.su,,,,,,,https://wa.me/78125715428,,,,,,,,59.933187,30.32218,https://2gis.com/firm/70000001046051092
Pride Bar,кафе,Кафе; Доставка готовых блюд,"улица Савушкина, 126",1 этаж; фитнес-клуб World Class,197374,Муниципальный округ №65,Приморский район,Санкт-Петербург,,Санкт-Петербург,Россия,Пн: 09:00-21:00; Вт: 09:00-21:00; Ср: 09:00-21:00; Чт: 09:00-21:00; Пт: 09:00-21:00; Сб: 10:00-21:00; Вс: 10:00-21:00,+03:00,4.9,91,89657887373,,,pridebar@yandex.ru,,http://pridefitnessbar.ru,,,,,https://wa.me/79657887373,,,,,,,,59.985149,30.203537,https://2gis.com/firm/70000001057221365
Sono Italiano,кафе итальянской кухни,Кафе; Кулинарии; Доставка готовых блюд; Пиццерии; Продукты быстрого приготовления,"Большая Зеленина, 34",1 этаж,197110,Чкаловское,Петроградский район,Санкт-Петербург,,Санкт-Петербург,Россия,Пн: 11:00-23:00; Вт: 11:00-23:00; Ср: 11:00-23:00; Чт: 11:00-23:00; Пт: 11:00-23:00; Сб: 11:00-23:00; Вс: 11:00-23:00,+03:00,4.9,100,89219934412,,,info@sonoitaliano.ru,,http://sonoitaliano.ru,,,,https://vk.com/sonoitaliano_ru,https://wa.me/79219934412,,,,,https://t.me/sonoitaliano_ru,,,59.964625,30.283784,https://2gis.com/firm/70000001047074004
1/2 of you,центр паровых коктейлей,Центры паровых коктейлей; Кафе; Бары,"Рубинштейна, 27",2 этаж,191002,Владимирский,Центральный район,Санкт-Петербург,,Санкт-Петербург,Россия,Пн: 14:00-02:00; Вт: 14:00-02:00; Ср: 14:00-02:00; Чт: 14:00-02:00; Пт: 14:00-06:00; Сб: 14:00-06:00; Вс: 14:00-02:00,+03:00,4.8,281,89818883910,,,halfofyou812@gmail.com,,http://half-of-you.ru,,,,https://vk.com/half_of_you_hookah,https://wa.me/79818883910,,,,,https://t.me/halfofyou,,,59.927118,30.34261,https://2gis.com/firm/70000001022384609
Солнечный город,кафе,Столовые; Банкетные залы; Кафе; Кондитерские изделия,"Брестский бульвар, 8",2 этаж,198330,Южно-Приморский,Красносельский район,Санкт-Петербург,,Санкт-Петербург,Россия,"Пн: 12:00-17:00; Вт: 12:00-17:00; Ср: 12:00-17:00; Чт: 12:00-17:00; Пт: 12:00-17:00; Сб: 11:00-20:00; Вс: 11:00-20:00 (по предварительной записи: сб, вс)",+03:00,4.0,11,88125096013 (доп.2),,,,,,,,,,https://wa.me/79516434824,,,viber://chat/?number=79516434824,,https://t.me/+79516434824,,,59.856399,30.199771,https://2gis.com/firm/70000001059389252
Molly Pub,пивной паб,Бары; Кафе,"Комендантский проспект, 11в",цокольный этаж,197227,Озеро Долгое,Приморский район,Санкт-Петербург,,Санкт-Петербург,Россия,Пн: 12:00-01:00; Вт: 12:00-01:00; Ср: 12:00-02:00; Чт: 12:00-02:00; Пт: 12:00-03:00; Сб: 12:00-02:00; Вс: 12:00-01:00,+03:00,4.7,49,88126001210,89119762851,,molly@molly.su,,info2gis.tilda.ws/proxy18?target=https://mollypub.ru/&back=https://2gis.ru/spb/firm/70000001046051081&mode=0,,,,,https://wa.me/79119762851,,,,,https://t.me/+79119762851,,,60.006848,30.264301,https://2gis.com/firm/70000001046051081
Mendeleev bar,химический бар,Караоке-залы; Бары; Кафе; Ночные клубы; Центры паровых коктейлей,"Банковский переулок, 6",1 этаж,191023,Муниципальный округ №78,Центральный район,Санкт-Петербург,,Санкт-Петербург,Россия,Пн: 15:00-06:00; Вт: 15:00-06:00; Ср: 15:00-06:00; Чт: 15:00-06:00; Пт: 15:00-06:00; Сб: 15:00-06:00; Вс: 15:00-06:00,+03:00,4.8,4282,89817573737,,,,,,,,,,https://wa.me/79817573737,,,viber://chat/?number=79817573737,,https://t.me/laborbar,,,59.93021,30.325055,https://2gis.com/firm/70000001037147332
Lestr Bar,бар,Бары; Кафе,"Ленина, 25",1 этаж,197136,Аптекарский остров,Петроградский район,Санкт-Петербург,,Санкт-Петербург,Россия,Пн: 13:00-01:00; Вт: 13:00-02:00; Ср: 13:00-02:00; Чт: 13:00-02:00; Пт: 13:00-03:00; Сб: 13:00-03:00; Вс: 13:00-01:00,+03:00,4.8,61,88129206545,,,,,,,,,https://vk.com/lestrbar,https://wa.me/79119206545,,,,,https://t.me/lestrbaronline,,,59.963088,30.302524,https://2gis.com/firm/70000001030559184
The Buddy Cafe,кафе современной кухни с элементами сенсорики и норда,Кафе; Бары,"Ломоносова, 14",1 этаж,191002,Владимирский,Центральный район,Санкт-Петербург,,Санкт-Петербург,Россия,Пн: 12:00-23:30; Вт: 12:00-23:30; Ср: 12:00-23:30; Чт: 12:00-23:30; Пт: 12:00-00:30; Сб: 12:00-00:30; Вс: 12:00-23:30,+03:00,4.6,415,89219194346,,,thebuddycafe@mail.ru,,http://cafebuddy.ru,http://t.me/the_buddy_cafe,,,https://vk.com/thebuddycafe,https://wa.me/79219194346,,,,,,,,59.92772,30.338252,https://2gis.com/firm/70000001023581884
Цех85,пекарня-кондитерская,Кондитерские изделия; Пекарни; Кафе-кондитерские; Доставка готовых блюд; Кофейни,"улица Садовая, 25",1 этаж,191023,Муниципальный округ №78,Центральный район,Санкт-Петербург,,Санкт-Петербург,Россия,Пн: 07:00-21:00; Вт: 07:00-21:00; Ср: 07:00-21:00; Чт: 07:00-21:00; Пт: 07:00-21:00; Сб: 08:00-21:00; Вс: 08:00-21:00,+03:00,4.5,90,88005008985 (единый номер: пн-вс 8:00-22:00),,,info@tseh85.ru,,http://tseh85.ru,,,,https://vk.com/tseh85,,,,,,https://t.me/tseh85bakery,,,59.929773,30.32457,https://2gis.com/firm/70000001028630292
Etlon coffee,сеть кофе-баров,Кофейни,"Образцовая, 5 к2 ст1",1 этаж,196605,Шушары пос.,Пушкинский район,Санкт-Петербург,,Санкт-Петербург,Россия,Пн: 08:00-22:00; Вт: 08:00-22:00; Ср: 08:00-22:00; Чт: 08:00-22:00; Пт: 08:00-22:00; Сб: 09:00-22:00; Вс: 09:00-22:00,+03:00,5.0,1,89992367777 (единая справочная: пн-вс 10:00-22:00),,,admin@etloncoffee.ru,,http://etlon.ru,,,,https://vk.com/etloncoffee,https://wa.me/79992367777,,,viber://chat/?number=79992367777,,https://t.me/etloncoffee,,https://youtube.com/channel/UC3jxN8ac9WTKn6pY6oXF0FQ,59.75295,30.372808,https://2gis.com/firm/70000001074570376
Toggle Coffee,авиационная кофейня,Кофейни; Продажа кофе; Пекарни,"площадь Ленина, 3",1 этаж; вход через магазин Море Чая,195009,Финляндский,Калининский район,Санкт-Петербург,,Санкт-Петербург,Россия,Пн: 07:30-23:00; Вт: 07:30-23:00; Ср: 07:30-23:00; Чт: 07:30-23:00; Пт: 07:30-23:00; Сб: 09:30-23:00; Вс: 09:30-23:00,+03:00,4.9,76,88127772485,,,info@toggle.coffee,,http://toggle.coffee,,,,,https://wa.me/79214094036,,,,,https://t.me/togglecoffee,https://t.me/+79214094036,,59.953726,30.356643,https://2gis.com/firm/70000001039261822
Albicocco,кафе-кондитерская,Кафе-кондитерские; Кофейни; Доставка готовых блюд,"Невский проспект, 35",2 этаж; вход с ул. Садовая,191011,Муниципальный округ №78,Центральный район,Санкт-Петербург,,Санкт-Петербург,Россия,Пн: 10:00-22:00; Вт: 10:00-22:00; Ср: 10:00-22:00; Чт: 10:00-22:00; Пт: 10:00-22:00; Сб: 10:00-22:00; Вс: 10:00-22:00,+03:00,3.6,14,88126305408,89213109545,,albicocco.spb@yandex.ru,,http://albicocco.ru,,,,,https://wa.me/79312663513,,,viber://chat/?number=79312663513,,https://t.me/+79312663513,,,59.932158,30.329901,https://2gis.com/firm/70000001066414848
Baggins Coffee,кофейня,Кофейни; Продажа кофе; Кондитерские изделия,"Московский проспект, 73 к5",1 этаж,196084,Измайловское,Адмиралтейский район,Санкт-Петербург,,Санкт-Петербург,Россия,Пн: 08:00-21:00; Вт: 08:00-21:00; Ср: 08:00-21:00; Чт: 08:00-21:00; Пт: 08:00-21:00; Сб: 09:00-21:00; Вс: 09:00-21:00,+03:00,4.2,41,88006007015 (единая справочная: пн-вс 10:00-19:00),,,info@bagginscoffee.ru,maps@bagginscoffee.ru,http://bagginscoffee.com,,,,https://vk.com/bagginscoffee,,,,,,https://t.me/bagginscoffee_bot,https://t.me/BagginsCoffee,https://youtube.com/channel/UCBVX0L_WSz9Wr3mF8xcCXyw,59.905048,30.312278,https://2gis.com/firm/70000001047602869
Brunch,кофейня,Кофейни; Доставка готовых блюд,"Рылеева, 13",1 этаж,191014,Литейный,Центральный район,Санкт-Петербург,,Санкт-Петербург,Россия,Пн: 08:00-21:00; Вт: 08:00-21:00; Ср: 08:00-21:00; Чт: 08:00-21:00; Пт: 08:00-21:00; Сб: 09:00-22:00; Вс: 09:00-22:00,+03:00,4.5,166,89939707770,,,brunch.spb@yandex.ru,,,,,,,https://wa.me/79939707770,,,,,https://t.me/brunchspb,,,59.942396,30.354625,https://2gis.com/firm/70000001044145847
Bodrum,кофейня,Кофейни; Продажа кофе; Кондитерские изделия,"Волховский переулок, 6",цокольный этаж,199004,Муниципальный округ №7,Василеостровский район,Санкт-Петербург,,Санкт-Петербург,Россия,Пн: 08:00-20:00; Вт: 08:00-20:00; Ср: 08:00-20:00; Чт: 08:00-20:00; Пт: 08:00-20:00; Сб: 09:00-20:00; Вс: 10:00-20:00,+03:00,5.0,18,,,,hitrow.aparts1001@gmail.com,,,,,,,,,,,,,,,59.944864,30.28984,https://2gis.com/firm/70000001067350415
Спэшл,кофейня,Кофейни; Продажа кофе; Календари / Открытки,"улица Большая Конюшенная, 4/6/8 лит В",1 этаж,191186,Дворцовый,Центральный район,Санкт-Петербург,,Санкт-Петербург,Россия,Пн: 09:00-21:00; Вт: 09:00-21:00; Ср: 09:00-21:00; Чт: 09:00-21:00; Пт: 09:00-21:00; Сб: 10:00-21:00; Вс: 10:00-21:00,+03:00,4.8,68,89211889219,,,speshl.coffee@gmail.com,,,,,,,,,,,,https://t.me/speshl_coffee,,,59.938528,30.323744,https://2gis.com/firm/70000001061449568
Kos. Place,кофейня,Кофейни; Продажа кофе; Продажа чая; Керамические изделия,"набережная реки Фонтанки, 86",1 этаж,191180,Владимирский,Центральный район,Санкт-Петербург,,Санкт-Петербург,Россия,Пн: 08:30-21:00; Вт: 08:30-21:00; Ср: 08:30-21:00; Чт: 08:30-21:00; Пт: 08:30-21:00; Сб: 09:00-21:00; Вс: 09:00-21:00,+03:00,4.6,60,89319992100,,,hello@kosplace.ru,,http://kosplace.ru,,,,https://vk.com/kos.place,https://wa.me/79319992100,,,viber://chat/?number=79319992100,,,,,59.925996,30.33089,https://2gis.com/firm/70000001043922259
Coffee Racer,кофейня,Кофейни,"Введенская, 22",1 этаж,197198,Введенский,Петроградский район,Санкт-Петербург,,Санкт-Петербург,Россия,Пн: 09:00-21:00; Вт: 09:00-21:00; Ср: 09:00-21:00; Чт: 09:00-21:00; Пт: 09:00-21:00; Сб: 09:00-21:00; Вс: 09:00-21:00,+03:00,4.8,34,89215554789,,,,,http://coffee-racer.ru,,,,,,,,,,https://t.me/coffeeracerspb,,,59.95533,30.30698,https://2gis.com/firm/70000001029175887
Кофестория,кофейня,Кофейни,"Российский проспект, 14",1 этаж,193231,Правобережный,Невский район,Санкт-Петербург,,Санкт-Петербург,Россия,Пн: 08:00-21:00; Вт: 08:00-21:00; Ср: 08:00-21:00; Чт: 08:00-21:00; Пт: 08:00-21:00; Сб: 08:00-21:00; Вс: 08:00-21:00,+03:00,4.6,33,89213219988,,,kofestoria@mail.ru,,http://kofestoria.vsite.biz,,,,https://vk.com/kofestoria,,,,,,,,,59.928164,30.471278,https://2gis.com/firm/70000001066117577
Городские кондитерские №1,кондитерская,Кофейни; Доставка готовых блюд; Кафе-кондитерские,"Большая Морская, 31",1 этаж,190031,Адмиралтейский,Адмиралтейский район,Санкт-Петербург,,Санкт-Петербург,Россия,Пн: 08:30-22:00; Вт: 08:30-22:00; Ср: 08:30-22:00; Чт: 08:30-22:00; Пт: 08:30-22:00; Сб: 08:30-22:00; Вс: 08:30-22:00,+03:00,4.0,40,88126777651,,,,,http://www.konditer1.ru,,,,https://vk.com/citycakes,,,,,,,,,59.933501,30.311229,https://2gis.com/firm/70000001025645113
Сообщество,кофейня,Кондитерские изделия; Доставка готовых блюд; Кофейни,"Короленко, 9",1 этаж,191014,Литейный,Центральный район,Санкт-Петербург,,Санкт-Петербург,Россия,Пн: 09:00-21:00; Вт: 09:00-21:00; Ср: 09:00-21:00; Чт: 09:00-21:00; Пт: 09:00-21:00; Сб: 09:00-21:00; Вс: 09:00-21:00,+03:00,4.5,75,89811519481,,,moznocoffee@gmail.com,,http://coffeebar-community.ru,,,,https://vk.com/coffeebar_community,https://wa.me/79811519481,,,viber://chat/?number=79811519481,,https://t.me/coffeebar_community,,,59.941914,30.350609,https://2gis.com/firm/70000001043899588
Double bubble tea,кафе,Кофейни,"набережная реки Фонтанки, 66",1 этаж,191002,Владимирский,Центральный район,Санкт-Петербург,,Санкт-Петербург,Россия,Пн: 10:00-22:00; Вт: 10:00-22:00; Ср: 10:00-22:00; Чт: 10:00-22:00; Пт: 10:00-22:00; Сб: 10:00-22:00; Вс: 10:00-22:00,+03:00,3.9,104,89112884477,,,doublebubble.spb@yandex.ru,,http://dbtea.ru,,,,https://vk.com/doublebubbletea,https://wa.me/79112884477,,,,,,,,59.928208,30.336798,https://2gis.com/firm/70000001059070964
Milanobar,кофейня,Кофейни; Продажа кофе; Продажа чая,"Невский проспект, 104",цокольный этаж,191025,Литейный,Центральный район,Санкт-Петербург,,Санкт-Петербург,Россия,Пн: 09:00-21:00; Вт: 09:00-21:00; Ср: 09:00-21:00; Чт: 09:00-21:00; Пт: 09:00-21:00; Сб: 12:00-18:00; Вс: 12:00-18:00,+03:00,4.7,23,89119291886,,,nevskiy104@caffebonomi.ru,,,,,,https://vk.com/milanobar_caffe,https://wa.me/79119291886,,,,,https://t.me/+79119291886,,,59.932001,30.356723,https://2gis.com/firm/70000001024381433
El Dorado,колумбийская кофейня,Кофейни; Доставка готовых блюд; Продажа кофе,"Комендантский проспект, 62",1 этаж,197373,Коломяги,Приморский район,Санкт-Петербург,,Санкт-Петербург,Россия,Пн: 09:00-21:00; Вт: 09:00-21:00; Ср: 09:00-21:00; Чт: 09:00-21:00; Пт: 09:00-21:00; Сб: 09:00-21:00; Вс: 09:00-21:00,+03:00,4.4,55,89692017013,,,offers@coffeeeldorado.com,,http://eldorado.cafe,,,,,https://wa.me/79692017013,,,,,,,,60.036624,30.224301,https://2gis.com/firm/70000001045503863
Территория Кофе,кофейня-кондитерская,Кофейни; Продажа кофе,"Каменноостровский проспект, 31-33",1 этаж,197022,Аптекарский остров,Петроградский район,Санкт-Петербург,,Санкт-Петербург,Россия,Пн: 07:00-22:00; Вт: 07:00-22:00; Ср: 07:00-22:00; Чт: 07:00-22:00; Пт: 07:00-22:00; Сб: 07:00-22:00; Вс: 07:00-22:00,+03:00,4.6,124,89990695939,,,fragen99@mail.ru,,,,,,https://vk.com/territoria_coffee_spb,https://wa.me/79990695939,,,,,https://t.me/+79990695939,,,59.964957,30.312589,https://2gis.com/firm/70000001055971053
Бублик,пекарня-кондитерская,Кофейни; Пекарни; Кондитерские изделия; Кафе-кондитерские; Доставка готовых блюд,"Ясная, 11",1 этаж,188689,,,,Всеволожский муниципальный район,Ленинградская область,Россия,Пн: 08:00-22:00; Вт: 08:00-22:00; Ср: 08:00-22:00; Чт: 08:00-22:00; Пт: 08:00-22:00; Сб: 08:00-22:00; Вс: 08:00-22:00,+03:00,4.1,34,89500333128,,,bikerspb@mail.ru,,http://bublik-yanino.clients.site/,,,,https://vk.com/bublik.yanino,https://wa.me/79500333128,,,viber://chat/?number=79500333128,,https://t.me/bublikyanino,https://t.me/+79500333128,,59.957242,30.597538,https://2gis.com/firm/70000001035400659
Coffee 232,спешелти кофейня,Кофейни,"Лиговский проспект, 232 ст1",1 этаж,192007,Волковское,Фрунзенский район,Санкт-Петербург,,Санкт-Петербург,Россия,Пн: 08:00-20:00; Вт: 08:00-20:00; Ср: 08:00-20:00; Чт: 08:00-20:00; Пт: 08:00-20:00; Сб: 09:00-20:00; Вс: 09:00-20:00,+03:00,4.5,24,89112017207,,,cff232@yandex.ru,,http://coffee-232.clients.site,,,,,https://wa.me/79112017207,,,,,https://t.me/+79112017207,,,59.906308,30.344693,https://2gis.com/firm/70000001057843654
Светелка,кафе-кондитерская,Кондитерские изделия; Кафе-кондитерские,"улица Парашютная, 38 к3",1 этаж,197371,Юнтолово,Приморский район,Санкт-Петербург,,Санкт-Петербург,Россия,Пн: 10:00-20:00; Вт: 10:00-20:00; Ср: 10:00-20:00; Чт: 10:00-20:00; Пт: 10:00-20:00; Сб: 11:00-20:00; Вс: 11:00-20:00,+03:00,4.8,14,88123821194,,,gbhouse18@mail.ru,,http://svetelkaspb.ru,,,,https://vk.com/svetelkaspb_s,https://wa.me/79218744137,,,,,https://t.me/svetelkaspb1,,,60.027743,30.253016,https://2gis.com/firm/70000001053474524
Крем и Корж,пекарня-кондитерская,Пекарни; Кафе-кондитерские,"Большой Сампсониевский проспект, 69 к2 ст1",1 этаж,194100,Сампсониевское,Выборгский район,Санкт-Петербург,,Санкт-Петербург,Россия,Пн: 08:00-22:00; Вт: 08:00-22:00; Ср: 08:00-22:00; Чт: 08:00-22:00; Пт: 08:00-22:00; Сб: 08:00-22:00; Вс: 08:00-22:00,+03:00,5.0,17,,,,,,,,,,https://vk.com/creamkorzh,,,,,,,,,59.982063,30.338645,https://2gis.com/firm/70000001075478266
День хлеба,кофейня-пекарня,Кофейни; Кафе-кондитерские; Продажа кофе; Пекарни,"улица Подводника Кузьмина, 44в",1 этаж,198215,Княжево,Кировский район,Санкт-Петербург,,Санкт-Петербург,Россия,Пн: 09:00-20:00; Вт: 09:00-20:00; Ср: 09:00-20:00; Чт: 09:00-20:00; Пт: 09:00-20:00; Сб: 10:00-20:00; Вс: 10:00-20:00,+03:00,4.8,27,89217778213,,,denxleba@mail.ru,,,,,,https://vk.com/the.breadday,https://wa.me/79217778213,,,,,https://t.me/+79217778213,,,59.84466,30.264312,https://2gis.com/firm/70000001065632086
Паруса на крыше,панорамный ресторан,Рестораны; Банкетные залы; Караоке-залы; Доставка готовых блюд; Бары,"улица Льва Толстого, 9",10 этаж,197022,Аптекарский остров,Петроградский район,Санкт-Петербург,,Санкт-Петербург,Россия,Пн: 09:00-23:00; Вт: 09:00-23:00; Ср: 09:00-23:00; Чт: 09:00-23:00; Пт: 09:00-06:00; Сб: 09:00-06:00; Вс: 09:00-23:00,+03:00,4.5,1729,88129911090,,,info@parusabanket.ru,,http://nakryshe.parusa-spb.ru,,,,https://vk.com/parusa_nakryshe,https://wa.me/79219911090,,,viber://chat/?number=79219911090,,https://t.me/parusanakrishe,,,59.965318,30.31563,https://2gis.com/firm/70000001007338961
Пышки-вприпрыжку,кафе,Быстрое питание,"1-я Советская улица, 12",1 этаж,191036,Смольнинское,Центральный район,Санкт-Петербург,,Санкт-Петербург,Россия,Пн: 09:00-21:00; Вт: 09:00-21:00; Ср: 09:00-21:00; Чт: 09:00-21:00; Пт: 09:00-21:00; Сб: 10:00-21:00; Вс: 10:00-21:00,+03:00,4.5,151,89119251712,,,pyshki_vpripryzhku@maxbier.ru,,http://вприпрыжку-пышка.рф,,,,https://vk.com/vpripryzhkupyshka,,,,,,https://t.me/vpripryzhku_pyshka,,,59.931052,30.364881,https://2gis.com/firm/70000001063957847
La Vue,панорамный ресторан,Рестораны,"Пироговская набережная, 5",10 этаж,194044,Сампсониевское,Выборгский район,Санкт-Петербург,,Санкт-Петербург,Россия,Пн: 12:00-23:00; Вт: 12:00-23:00; Ср: 12:00-23:00; Чт: 12:00-23:00; Пт: 12:00-24:00; Сб: 12:00-24:00; Вс: 12:00-23:00,+03:00,3.1,108,88126330646,,,lavue@hotel-spb.ru,banketcitytel@yandex.ru,http://la-vue.ru,,,,https://vk.com/lavuespb,,,,,,,,,59.956771,30.341659,https://2gis.com/firm/70000001028424448
Этаж 41,гастрономический ресторан,Рестораны; Бары; Банкетные залы; Караоке-залы; Доставка готовых блюд,"площадь Конституции, 3",41 этаж,196247,Новоизмайловское,Московский район,Санкт-Петербург,,Санкт-Петербург,Россия,"Пн: 11:30-23:30; Вт: 11:30-23:30; Ср: 11:30-23:30; Чт: 11:30-23:30; Пт: 11:00-03:00; Сб: 11:00-03:00; Вс: 11:30-23:30 (до последнего гостя: пт, сб)",+03:00,4.2,291,88126152453,,,reklama@41floor.com,,http://wellcompany.group,,,,https://vk.com/41floor,https://wa.me/79219555559,,,,,https://t.me/+79219374141,,,59.850688,30.30467,https://2gis.com/firm/70000001020531324
Barashki,панорамный ресторан с видовой террасой,Рестораны; Караоке-залы,"Ефимова, 2",5 этаж,190031,Сенной,Адмиралтейский район,Санкт-Петербург,,Санкт-Петербург,Россия,Пн: 12:00-23:00; Вт: 12:00-23:00; Ср: 12:00-23:00; Чт: 12:00-23:00; Пт: 12:00-04:00; Сб: 12:00-04:00; Вс: 12:00-23:00,+03:00,4.1,262,88126607962,,,barashrest@gmail.com,,http://barashkispb.ru,,,,https://vk.com/barashki.rest,https://wa.me/79219036699,,,,,,,,59.926518,30.320506,https://2gis.com/firm/70000001007553890
Чайхона,ресторан,Рестораны; Бары; Доставка готовых блюд,"Невский проспект, 22",2 этаж,191186,Дворцовый,Центральный район,Санкт-Петербург,,Санкт-Петербург,Россия,Пн: 00:00-24:00; Вт: 00:00-24:00; Ср: 00:00-24:00; Чт: 00:00-24:00; Пт: 00:00-24:00; Сб: 00:00-24:00; Вс: 00:00-24:00,+03:00,3.8,441,89119223022,,,info@chaihona-nevskiy.ru,,http://chaihonaspb.ru,,,,https://vk.com/chaihona_spb,,,,,,https://t.me/chaihona_nevskiy22,,,59.935976,30.322912,https://2gis.com/firm/70000001061426336
Пахвала,чайхана,Рестораны; Доставка готовых блюд; Суши-бары; Караоке-залы; Банкетные залы,"Петергофское шоссе, 51",3 этаж,198322,Южно-Приморский,Красносельский район,Санкт-Петербург,,Санкт-Петербург,Россия,Пн: 12:00-23:00; Вт: 12:00-23:00; Ср: 12:00-23:00; Чт: 12:00-23:00; Пт: 12:00-03:00; Сб: 12:00-03:00; Вс: 12:00-23:00,+03:00,4.4,254,88123398878,,,chaihana@pahvala.ru,,http://pahvala.ru,,,,https://vk.com/pahvala_spb,,,,,,,,,59.849401,30.144455,https://2gis.com/firm/70000001018020733
L`eclat,ресторан,Рестораны; Бары,"улица Пестеля, 1/12",цокольный этаж; вход через отель Оболенский,191028,Литейный,Центральный район,Санкт-Петербург,,Санкт-Петербург,Россия,"Пн: 07:00-11:00, 12:00-23:00; Вт: 07:00-11:00, 12:00-23:00; Ср: 07:00-11:00, 12:00-23:00; Чт: 07:00-11:00, 12:00-23:00; Пт: 07:00-11:00, 12:00-23:00; Сб: 07:00-11:00, 12:00-23:00; Вс: 07:00-11:00, 12:00-23:00",+03:00,4.6,21,89111984545,,,info@leclat-restbar.ru,,http://leclat-restbar.ru,,,,https://vk.com/leclat_rest,https://wa.me/79111984545,,,,,,,,59.942106,30.339168,https://2gis.com/firm/70000001063141572
Утка и Селезень,ресторан,Рестораны,"Санкт-Петербургский проспект, 34",1 этаж,198510,Петергоф г.,Петродворцовый район,Санкт-Петербург,,Санкт-Петербург,Россия,Пн: 11:00-23:00; Вт: 11:00-23:00; Ср: 11:00-23:00; Чт: 11:00-23:00; Пт: 11:00-23:00; Сб: 11:00-23:00; Вс: 11:00-23:00 (до последнего гостя: пн-вс),+03:00,4.5,65,88123192699,,,fb@new-peterhof.com,,http://duck-drake.com,,,,https://vk.com/duck_and_drake,https://wa.me/79650359052,,,,,,,,59.879062,29.911085,https://2gis.com/firm/5348552841058327
Коза Дереза Море,сеть ресторанов,Рестораны; Доставка готовых блюд; Бары,"Приморский проспект, 72",1 этаж,197374,Муниципальный округ №65,Приморский район,Санкт-Петербург,,Санкт-Петербург,Россия,Пн: 12:00-23:00; Вт: 12:00-23:00; Ср: 12:00-23:00; Чт: 12:00-23:00; Пт: 12:00-01:00; Сб: 12:00-01:00; Вс: 12:00-23:00,+03:00,4.2,210,88124568080,,,service@kozaderezapub.ru,,http://koza.group,,,,https://vk.com/kozagrouprest,https://wa.me/79816961665,,,,,,,,59.980502,30.210362,https://2gis.com/firm/70000001037292057
На высоте,панорамный ресторан на крыше с банным комплексом,Бани / Сауны; Рестораны,"Матроса Железняка, 57 лит А",20 этаж; 4 парадная; вход со двора,197343,Ланское,Приморский район,Санкт-Петербург,,Санкт-Петербург,Россия,Пн: 00:00-24:00; Вт: 00:00-24:00; Ср: 00:00-24:00; Чт: 00:00-24:00; Пт: 00:00-24:00; Сб: 00:00-24:00; Вс: 00:00-24:00 (по предварительной записи),+03:00,4.1,28,89660343238,,,dmisharin@yandex.ru,,http://navisote-spb.ru,,,,https://vk.com/navisote_spb,https://wa.me/79006374737,https://wa.me/79660343238,,,,https://t.me/+79660343238,,,59.999849,30.315061,https://2gis.com/firm/70000001027522128
Commode,бар-ресторан,Бары; Караоке-залы; Банкетные залы; Рестораны,"Невский проспект, 47",1-2 этаж,191025,Владимирский,Центральный район,Санкт-Петербург,,Санкт-Петербург,Россия,Пн: 19:00-05:00; Вт: 19:00-05:00; Ср: 19:00-05:00; Чт: 19:00-05:00; Пт: 19:00-07:00; Сб: 19:00-05:00; Вс: 19:00-05:00,+03:00,4.3,843,88124164848,,,,,http://commode.club,,,,https://vk.com/commodeclub,,,,,,https://t.me/commodeclub,,,59.932556,30.347396,https://2gis.com/firm/70000001021049341
The OFFICE Nargilia Lounge,лаундж-бар,Центры паровых коктейлей; Бары; Антикафе,"Рубинштейна, 30 лит Б",4 этаж,191002,Владимирский,Центральный район,Санкт-Петербург,,Санкт-Петербург,Россия,Пн: 14:00-02:00; Вт: 14:00-02:00; Ср: 14:00-02:00; Чт: 14:00-02:00; Пт: 14:00-06:00; Сб: 14:00-06:00; Вс: 14:00-02:00,+03:00,4.8,252,88129807646,,,,,http://theofficespb.ru/,,,,https://vk.com/theofficenargilia,,,,,,,,,59.928559,30.345079,https://2gis.com/firm/5348553838873681
Слой,кафе-пекарня,Пекарни; Кафе; Кондитерские изделия; Кофейни,"Маяковского, 3",1 этаж,191025,Литейный,Центральный район,Санкт-Петербург,,Санкт-Петербург,Россия,Пн: 07:58-21:03; Вт: 07:58-21:03; Ср: 07:58-21:03; Чт: 07:58-21:03; Пт: 07:58-21:03; Сб: 07:58-21:03; Вс: 07:58-21:03,+03:00,4.5,146,88129812255,,,,,http://sloy.pro,,,,,,,,,,https://t.me/sloy_bakery,,,59.933837,30.35489,https://2gis.com/firm/70000001055474886
Aster,городское кафе,Пекарни; Кафе,"Маяковского, 23",1 этаж,191014,Литейный,Центральный район,Санкт-Петербург,,Санкт-Петербург,Россия,Пн: 09:00-23:00; Вт: 09:00-23:00; Ср: 09:00-23:00; Чт: 09:00-23:00; Пт: 09:00-23:00; Сб: 09:00-23:00; Вс: 09:00-23:00,+03:00,4.4,198,89215780023,,,,,http://astercafe.ru,,,,,https://wa.me/79215780023,,,,,https://t.me/hello_aster,,,59.939668,30.355489,https://2gis.com/firm/70000001054727024
Italia,семейное кафе,Кафе; Доставка готовых блюд,"проспект Бакунина, 5",1 этаж,191024,Смольнинское,Центральный район,Санкт-Петербург,,Санкт-Петербург,Россия,Пн: 09:00-02:00; Вт: 09:00-02:00; Ср: 09:00-02:00; Чт: 09:00-02:00; Пт: 09:00-02:00; Сб: 10:00-02:00; Вс: 10:00-02:00,+03:00,4.2,528,88129056474,89219056474,,,,,,,,https://vk.com/club14834975,,,,,,,,,59.929845,30.374958,https://2gis.com/firm/5348552838596842
Хачапури и вино,кафе грузинской кухни,Кафе; Доставка готовых блюд,"улица Малая Конюшенная, 9",1 этаж,191186,Дворцовый,Центральный район,Санкт-Петербург,,Санкт-Петербург,Россия,Пн: 11:30-23:00; Вт: 11:30-23:00; Ср: 11:30-23:00; Чт: 11:30-23:00; Пт: 11:30-01:00; Сб: 11:30-01:00; Вс: 11:30-23:00,+03:00,3.8,713,88129028000 (служба бронирования),,,,,http://hachapuriivino.ru,,,,https://vk.com/hachapuriivino,,,,,,,,,59.9363,30.324632,https://2gis.com/firm/70000001030457181
У Ларисы,кафе-бар,Кафе; Бары; Доставка готовых блюд; Рюмочные,"Рубинштейна, 29/28",цокольный этаж,191002,Владимирский,Центральный район,Санкт-Петербург,,Санкт-Петербург,Россия,Пн: 12:00-06:00; Вт: 12:00-06:00; Ср: 12:00-06:00; Чт: 12:00-06:00; Пт: 12:00-06:00; Сб: 12:00-06:00; Вс: 12:00-06:00,+03:00,4.3,306,88129034490,,,,,http://larisochnaya.ru,,,,,,,,,,,,,59.926943,30.342561,https://2gis.com/firm/70000001020796815
"Федя, дичь!",аутентичный ларек шашлычная,Кафе; Бары,"улица Садовая, 7-9-11",1 этаж,191011,Дворцовый,Центральный район,Санкт-Петербург,,Санкт-Петербург,Россия,Пн: 12:00-02:00; Вт: 12:00-02:00; Ср: 12:00-02:00; Чт: 12:00-02:00; Пт: 12:00-02:00; Сб: 12:00-02:00; Вс: 12:00-02:00,+03:00,4.5,215,89219851112,,,,,,,,,,,,,,,,,,59.935557,30.335523,https://2gis.com/firm/70000001061503211
Stage stand up club,бар,Стендап-клубы; Бары; Пиццерии; Кафе,"Восстания, 24а",1 этаж,191014,Литейный,Центральный район,Санкт-Петербург,,Санкт-Петербург,Россия,Пн: 16:00-24:00; Вт: 16:00-24:00; Ср: 16:00-24:00; Чт: 16:00-24:00; Пт: 16:00-02:00; Сб: 16:00-02:00; Вс: 16:00-24:00,+03:00,4.4,118,89111236288,,,,,http://stagestandup.ru,,,,https://vk.com/stagestandup,,,,,,https://t.me/stagestandup,https://t.me/+79111236288,,59.938134,30.358923,https://2gis.com/firm/70000001030633445
Хачапури и вино,кафе грузинской кухни,Рестораны; Кафе; Доставка готовых блюд,"Большой проспект П.С., 74",1 этаж,197136,Аптекарский остров,Петроградский район,Санкт-Петербург,,Санкт-Петербург,Россия,Пн: 11:30-23:00; Вт: 11:30-23:00; Ср: 11:30-23:00; Чт: 11:30-23:00; Пт: 11:30-01:00; Сб: 11:30-01:00; Вс: 11:30-23:00,+03:00,3.2,257,88129028000 (служба бронирования),,,,,http://hachapuriivino.ru,,,,https://vk.com/hachapuriivino,,,,,,,,,59.96333,30.307672,https://2gis.com/firm/70000001045040199
Мидийное место,ресторан морепродуктов,Кафе,"Невский проспект, 18",1 этаж,191186,Дворцовый,Центральный район,Санкт-Петербург,,Санкт-Петербург,Россия,Пн: 11:00-23:00; Вт: 11:00-23:00; Ср: 11:00-23:00; Чт: 11:00-23:00; Пт: 11:00-23:00; Сб: 11:00-23:00; Вс: 11:00-23:00,+03:00,4.2,119,89219270111,,,,,http://midiynoe-mesto.ru,,,,https://vk.com/midiynoemesto,,,,,,,,,59.936486,30.318243,https://2gis.com/firm/70000001067303521
Уе!,паб,Бары; Кафе,"Жуковского, 28",цокольный этаж,191014,Литейный,Центральный район,Санкт-Петербург,,Санкт-Петербург,Россия,Пн: 18:00-02:00; Вт: 18:00-02:00; Ср: 18:00-02:00; Чт: 18:00-02:00; Пт: 18:00-05:00; Сб: 16:00-05:00; Вс: 16:00-02:00,+03:00,4.8,904,89219053060,,,,,http://yebar.ru,,,,https://vk.com/yebarru,https://wa.me/79219053060,,,,,,,,59.936273,30.360045,https://2gis.com/firm/70000001044307131
Ленинградский экспресс,кафе с обслуживанием в виде железной дороги и поездов,Кафе,"улица Салова, 61",2 этаж,192102,Волковское,Фрунзенский район,Санкт-Петербург,,Санкт-Петербург,Россия,Пн: 11:00-23:00; Вт: 11:00-23:00; Ср: 11:00-23:00; Чт: 11:00-23:00; Пт: 11:00-23:00; Сб: 11:00-23:00; Вс: 11:00-23:00,+03:00,3.8,188,89817839973,,,,,http://lenexbar.ru,,,,https://vk.com/len_express,https://wa.me/79817839973,,,,,,,,59.884733,30.368131,https://2gis.com/firm/70000001044495748
Квартира 8,ресторан-музей,Рестораны; Бары; Кафе,"Невский проспект, 71",5 этаж; вход в арку,191025,Владимирский,Центральный район,Санкт-Петербург,,Санкт-Петербург,Россия,Пн: 13:00-23:00; Вт: 13:00-23:00; Ср: 13:00-23:00; Чт: 13:00-23:00; Пт: 13:00-02:00; Сб: 13:00-02:00; Вс: 13:00-23:00 (по предварительной записи: пн-вс),+03:00,3.5,151,89216517788,,,,,http://kvartira8.com,,,,https://vk.com/kvartira8.rest,https://wa.me/79216517788,,,,,https://t.me/kvartira8_rest,,,59.931164,30.354728,https://2gis.com/firm/70000001024383691
Skal! Наследие Севера,бар-музей,Бары; Кафе,"Правды, 12",цокольный этаж,191119,Владимирский,Центральный район,Санкт-Петербург,,Санкт-Петербург,Россия,Пн: 15:00-02:00; Вт: 15:00-02:00; Ср: 15:00-02:00; Чт: 15:00-02:00; Пт: 15:00-03:00; Сб: 14:00-03:00; Вс: 14:00-02:00,+03:00,4.6,205,89112305324,,,,,http://skalbar.ru,,,,https://vk.com/skalspb,,,,,,,,,59.923342,30.34263,https://2gis.com/firm/70000001052054595
Цветочки,коктейль-бар,Бары; Кафе; Алкогольные напитки,"улица Некрасова, 17",1 этаж,191014,Литейный,Центральный район,Санкт-Петербург,,Санкт-Петербург,Россия,Пн: 15:00-02:00; Вт: 15:00-02:00; Ср: 15:00-02:00; Чт: 15:00-02:00; Пт: 15:00-03:00; Сб: 15:00-03:00; Вс: 15:00-02:00,+03:00,4.6,107,88129420754,,,,,,,,,,,,,,,https://t.me/perfectbarsteam,,,59.938702,30.356739,https://2gis.com/firm/5348552841570632
Branch garage,бар,Бары; Доставка готовых блюд; Кафе,"Печатника Григорьева, 12",1 этаж,191119,Владимирский,Центральный район,Санкт-Петербург,,Санкт-Петербург,Россия,Пн: 12:00-06:00; Вт: 12:00-06:00; Ср: 12:00-06:00; Чт: 12:00-06:00; Пт: 12:00-06:00; Сб: 12:00-06:00; Вс: 12:00-06:00,+03:00,3.7,165,89117236666,,,,,,,,,,https://wa.me/79117236666,,,,,https://t.me/+79117236666,,,59.918981,30.351266,https://2gis.com/firm/70000001044305536
Полторы комнаты,бар,Бары; Кафе,"Маяковского, 34/4",цокольный этаж,191014,Литейный,Центральный район,Санкт-Петербург,,Санкт-Петербург,Россия,Пн: 18:00-02:00; Вт: 18:00-02:00; Ср: 18:00-02:00; Чт: 18:00-02:00; Пт: 18:00-03:00; Сб: 18:00-03:00; Вс: 18:00-02:00,+03:00,4.7,106,89219418207,,,,,,,,,,,,,,,https://t.me/+79219418207,https://t.me/perfectbarsteam,https://youtube.com/perfectbarsteam,59.940082,30.355041,https://2gis.com/firm/70000001006656112
Oversize pizza club,пиццерия,Пиццерии; Доставка готовых блюд; Кафе; Быстрое питание,"Гражданская, 13-15",1 этаж,190031,Сенной,Адмиралтейский район,Санкт-Петербург,,Санкт-Петербург,Россия,Пн: 12:00-23:00; Вт: 12:00-23:00; Ср: 12:00-23:00; Чт: 12:00-23:00; Пт: 12:00-01:00; Сб: 12:00-01:00; Вс: 12:00-23:00,+03:00,4.3,312,89219006966,,,,,http://oversize.pizza,,,https://twitter.com/oversize_pizza,https://vk.com/oversize.pizza,,,,,,,,,59.928514,30.31225,https://2gis.com/firm/70000001031107469
Футура,современное локальное бистро с сезонными продуктами,Кафе; Доставка готовых блюд,"набережная реки Карповки, 5 к36",1 этаж,197022,Аптекарский остров,Петроградский район,Санкт-Петербург,,Санкт-Петербург,Россия,Пн: 09:00-21:00; Вт: 09:00-22:00; Ср: 09:00-22:00; Чт: 09:00-22:00; Пт: 09:00-22:00; Сб: 09:00-22:00; Вс: 09:00-22:00,+03:00,4.7,471,89995344509 (единый номер: пн-вс 9:00-23:00),,,,,,,,,,,,,,,https://t.me/futurabistro,,,59.969186,30.317158,https://2gis.com/firm/70000001037818543
Такояки,стритфуд-кафе японской кухни,Быстрое питание; Доставка готовых блюд; Кафе,"переулок Крылова, 2",,191023,Муниципальный округ №78,Центральный район,Санкт-Петербург,,Санкт-Петербург,Россия,Пн: 12:00-22:00; Вт: 12:00-22:00; Ср: 12:00-22:00; Чт: 12:00-22:00; Пт: 12:00-22:00; Сб: 12:00-22:00; Вс: 12:00-22:00,+03:00,4.9,787,89052571828,,,,,http://такояки.рф,,,,https://vk.com/takoyaki,,,,,,,,,59.932751,30.333717,https://2gis.com/firm/70000001021712841
Неканон,бар,Бары; Кафе,"Лиговский проспект, 21Б",цокольный этаж,191036,Смольнинское,Центральный район,Санкт-Петербург,,Санкт-Петербург,Россия,Пн: 13:00-23:00; Вт: 13:00-23:00; Ср: 13:00-23:00; Чт: 13:00-23:00; Пт: 13:00-02:00; Сб: 13:00-02:00; Вс: 13:00-23:00,+03:00,4.5,281,89657491654,,,,,http://menu.restik.com/nekanon,,,,https://vk.com/barnekanon,,,,,,https://t.me/barnekanon,https://t.me/bar_nekanon,,59.93524,30.363433,https://2gis.com/firm/70000001034991312
У Ларисы,кафе-бар,Рюмочные; Кафе,"Кронверкская, 7",1 этаж,197101,Кронверкское,Петроградский район,Санкт-Петербург,,Санкт-Петербург,Россия,Пн: 12:00-06:00; Вт: 12:00-06:00; Ср: 12:00-06:00; Чт: 12:00-06:00; Пт: 12:00-06:00; Сб: 12:00-06:00; Вс: 12:00-06:00,+03:00,4.5,130,89990444030,,,,,http://larisochnaya.ru,,,,,,,,,,,,,59.95859,30.312748,https://2gis.com/firm/70000001060810479
Хачапури и вино,кафе грузинской кухни,Кафе; Доставка готовых блюд,"Казанская, 29",цокольный этаж,190031,Сенной,Адмиралтейский район,Санкт-Петербург,,Санкт-Петербург,Россия,Пн: 11:30-23:00; Вт: 11:30-23:00; Ср: 11:30-23:00; Чт: 11:30-23:00; Пт: 11:30-01:00; Сб: 11:30-01:00; Вс: 11:30-23:00,+03:00,3.4,234,88129028000 (служба бронирования),,,,,http://hachapuriivino.ru,,,,https://vk.com/hachapuriivino,,,,,,,,,59.929805,30.314166,https://2gis.com/firm/70000001045274392
Малатан,китайский и паназиатский ресторан,Доставка готовых блюд; Быстрое питание; Кафе,"Невский проспект, 128",1 этаж,191036,Смольнинское,Центральный район,Санкт-Петербург,,Санкт-Петербург,Россия,Пн: 11:00-23:00; Вт: 11:00-23:00; Ср: 11:00-23:00; Чт: 11:00-23:00; Пт: 11:00-23:00; Сб: 11:00-23:00; Вс: 11:00-23:00,+03:00,5.0,1559,89119205175,,,,,http://malatanspb.ru,,,,https://vk.com/malatan_spb,https://wa.me/79119205175,,,,,,,,59.931345,30.366953,https://2gis.com/firm/70000001060749771
Co-Op Garage,бар,Бары; Кафе,"Гороховая, 47",1 этаж,190031,Сенной,Адмиралтейский район,Санкт-Петербург,,Санкт-Петербург,Россия,Пн: 12:00-24:00; Вт: 12:00-24:00; Ср: 12:00-24:00; Чт: 12:00-24:00; Пт: 12:00-02:00; Сб: 12:00-02:00; Вс: 12:00-24:00,+03:00,2.8,211,89650122222,,,,,http://cooperativegarage.com,,,,,,,,,,,,,59.927071,30.322817,https://2gis.com/firm/70000001019736587
У Ларисы,кафе-бар,Кафе; Бары; Доставка готовых блюд; Рюмочные,"Маяковского, 39",цокольный этаж,191123,Литейный,Центральный район,Санкт-Петербург,,Санкт-Петербург,Россия,Пн: 12:00-06:00; Вт: 12:00-06:00; Ср: 12:00-06:00; Чт: 12:00-06:00; Пт: 12:00-06:00; Сб: 12:00-06:00; Вс: 12:00-06:00,+03:00,4.4,79,,,,,,http://larisochnaya.ru,,,,,,,,,,,,,59.942208,30.355653,https://2gis.com/firm/70000001069595862
Саквояж беременной шпионки,кафе-бар,Бары; Доставка готовых блюд; Кафе,"улица Большая Конюшенная, 17",цокольный этаж,191186,Дворцовый,Центральный район,Санкт-Петербург,,Санкт-Петербург,Россия,Пн: 11:00-01:00; Вт: 11:00-01:00; Ср: 11:00-01:00; Чт: 11:00-01:00; Пт: 11:00-02:00; Сб: 12:00-02:00; Вс: 12:00-01:00,+03:00,4.1,236,89219509516,,,,,http://sakvojagcafe.ru,http://t.me/sakvojagcafe,,,https://vk.com/club412826,https://wa.me/79219509516,,,viber://chat/?number=79219509516,,,,,59.938772,30.323223,https://2gis.com/firm/5348552838564885
Грибоедов,клуб,Ночные клубы; Кафе; Бары,"Воронежская, 2а",1-2 этаж,191119,Владимирский,Центральный район,Санкт-Петербург,,Санкт-Петербург,Россия,Пн: 12:00-02:00; Вт: 12:00-02:00; Ср: 12:00-02:00; Чт: 12:00-02:00; Пт: 12:00-04:00; Сб: 14:00-04:00; Вс: 14:00-02:00 (до последнего гостя),+03:00,3.6,87,88129737273,,,,,http://www.griboedovclub.ru,,,,https://vk.com/gribi4,,,,,,https://t.me/griboedovbasement,,,59.919539,30.350644,https://2gis.com/firm/5348552838541828
Мечтатели,гастрономическое кафе,Кафе; Доставка готовых блюд,"набережная реки Фонтанки, 11",1 этаж,191023,Дворцовый,Центральный район,Санкт-Петербург,,Санкт-Петербург,Россия,Пн: 08:00-23:00; Вт: 08:00-23:00; Ср: 08:00-23:00; Чт: 08:00-23:00; Пт: 08:00-23:00; Сб: 08:00-23:00; Вс: 08:00-23:00,+03:00,4.1,173,89217613155,,,,,http://thedreamerscafe.ru,,,,https://vk.com/followdreamers,https://wa.me/79217613155,,,,,https://t.me/followdreamers,,,59.936837,30.342848,https://2gis.com/firm/70000001019632134
Bekitzer,израильский стритфуд-бар,Кафе,"набережная Адмиралтейского канала, 2 лит Т",1 этаж,190121,Адмиралтейский,Адмиралтейский район,Санкт-Петербург,,Санкт-Петербург,Россия,Пн: 11:00-23:00; Вт: 11:00-23:00; Ср: 11:00-23:00; Чт: 11:00-23:00; Пт: 11:00-23:00; Сб: 11:00-23:00; Вс: 11:00-23:00,+03:00,4.7,272,88129274340,89119274340,,,,http://bekitzernh.ru,,,,,https://wa.me/79119274340,,,,,https://t.me/bekitzer_spb,,,59.92922,30.28755,https://2gis.com/firm/70000001028987432
Чуфальня,китайское кафе,Кафе,"улица Садовая, 28-30 к27",2 этаж,191023,Муниципальный округ №78,Центральный район,Санкт-Петербург,,Санкт-Петербург,Россия,Пн: 10:00-23:00; Вт: 10:00-23:00; Ср: 10:00-23:00; Чт: 10:00-23:00; Пт: 10:00-23:00; Сб: 10:00-23:00; Вс: 10:00-23:00,+03:00,3.9,337,89650224885,89516759999,,,,http://china-chufalnya.ru,,,,,,,,,,,,,59.928994,30.326748,https://2gis.com/firm/70000001020278708
Jungle,кафе,Кафе; Бары; Доставка готовых блюд,"набережная канала Грибоедова, 18-20",1 этаж,191011,Муниципальный округ №78,Центральный район,Санкт-Петербург,,Санкт-Петербург,Россия,Пн: 08:00-23:00; Вт: 08:00-23:00; Ср: 08:00-23:00; Чт: 08:00-23:00; Пт: 08:00-23:00; Сб: 08:00-23:00; Вс: 08:00-23:00,+03:00,3.9,181,88129171234,89219171234,,,,http://ko-restaurants.ru/r/jungle,http://junglecafe.ru,,,,,,,,,,,,59.934261,30.327045,https://2gis.com/firm/70000001029158761
Синий Пушкин,"рестобар, созданный Сергеем Шнуровым",Бары; Кафе,"Жуковского, 3",1 этаж,191014,Литейный,Центральный район,Санкт-Петербург,,Санкт-Петербург,Россия,Пн: 16:00-02:00; Вт: 16:00-02:00; Ср: 16:00-02:00; Чт: 16:00-02:00; Пт: 16:00-06:00; Сб: 16:00-06:00; Вс: 16:00-02:00,+03:00,4.0,156,89818575101,,,,,http://www.spushkin.com,,,,https://vk.com/club19389632,,,,,,,,,59.935867,30.350238,https://2gis.com/firm/5348552839200910
Контакт,бар,Бары; Кафе; Караоке-залы,"Владимирский проспект, 17",2 этаж,191002,Владимирский,Центральный район,Санкт-Петербург,,Санкт-Петербург,Россия,Пн: 14:00-06:00; Вт: 14:00-06:00; Ср: 14:00-06:00; Чт: 14:00-06:00; Пт: 14:00-06:00; Сб: 14:00-06:00; Вс: 14:00-06:00,+03:00,4.0,275,89219518395,88129518395,,,,http://kontaktbar.ru,,,,https://vk.com/kontaktbar,,,,,,https://t.me/kontaktbarspb,,,59.928719,30.347111,https://2gis.com/firm/5348552839972103
Краснодарский парень,бургерная лавка,Быстрое питание; Доставка готовых блюд; Кафе,"Лиговский проспект, 81",1 этаж,191040,Владимирский,Центральный район,Санкт-Петербург,,Санкт-Петербург,Россия,Пн: 12:00-23:00; Вт: 12:00-23:00; Ср: 12:00-23:00; Чт: 12:00-23:00; Пт: 12:00-23:00; Сб: 12:00-23:00; Вс: 12:00-23:00,+03:00,4.1,375,89811070174,,,,,http://saintp.krd-paren.ru/,,,,https://vk.com/krdparen_spb,https://wa.me/79811070174,,,,,https://t.me/+79811070174,,,59.924805,30.356632,https://2gis.com/firm/70000001028138876
Paloma cantina,ресторан,Кафе; Бары,"улица Садовая, 8/7",1 этаж,191023,Дворцовый,Центральный район,Санкт-Петербург,,Санкт-Петербург,Россия,Пн: 12:00-24:00; Вт: 12:00-24:00; Ср: 12:00-24:00; Чт: 12:00-24:00; Пт: 12:00-01:00; Сб: 12:00-01:00; Вс: 12:00-24:00,+03:00,4.4,150,89811247203,,,,,,,,,,,,,,,,,,59.936988,30.336439,https://2gis.com/firm/70000001034888668
Pionero,кафе итальянской кухни,Бары; Кафе,"улица Пионерская, 5",1 этаж,197198,Петровский,Петроградский район,Санкт-Петербург,,Санкт-Петербург,Россия,Пн: 08:30-02:00; Вт: 08:30-02:00; Ср: 08:30-02:00; Чт: 08:30-02:00; Пт: 08:30-02:00; Сб: 08:30-02:00; Вс: 08:30-02:00,+03:00,4.2,117,89522135882,,,,,http://pio.team/pionero,,,,https://vk.com/pioteam,https://wa.me/79522135882,,,,,,,,59.955749,30.295424,https://2gis.com/firm/70000001033487947
Tagliatella caffe,бар,Бары; Кафе,"Литейный проспект, 61",1 этаж,191014,Литейный,Центральный район,Санкт-Петербург,,Санкт-Петербург,Россия,Пн: 16:00-24:00; Вт: 16:00-24:00; Ср: 16:00-24:00; Чт: 16:00-24:00; Пт: 16:00-01:00; Сб: 16:00-01:00; Вс: 16:00-24:00,+03:00,4.7,76,89291580036,,,,,,,,,,,,,,,,,,59.933657,30.347055,https://2gis.com/firm/70000001050370830
Mama roma,ресторан итальянской кухни,Рестораны; Доставка готовых блюд; Кафе,"Невский проспект, 142",1 этаж,191024,Смольнинское,Центральный район,Санкт-Петербург,,Санкт-Петербург,Россия,Пн: 08:00-01:00; Вт: 08:00-01:00; Ср: 08:00-01:00; Чт: 08:00-01:00; Пт: 08:00-01:00; Сб: 10:00-01:00; Вс: 10:00-01:00,+03:00,4.6,829,89119233037,,,,,http://mamaroma.ru,,,,https://vk.com/mamaroma_official,https://wa.me/79111337377,,,,,https://t.me/mamaromarest,,https://youtube.com/channel/UCymgLt0i1d9c5GdDlnzdfJg,59.929516,30.369556,https://2gis.com/firm/5348552840600745
Pancake house,,Кафе; Быстрое питание,"Литейный проспект, 40",1 этаж,191014,Литейный,Центральный район,Санкт-Петербург,,Санкт-Петербург,Россия,Пн: 10:00-22:00; Вт: 10:00-22:00; Ср: 10:00-22:00; Чт: 10:00-22:00; Пт: 10:00-22:00; Сб: 10:00-22:00; Вс: 10:00-22:00 (по пред. зарис),+03:00,4.7,265,89218844177,,,,,http://pancakehouse.ru,,,,https://vk.com/public210392378,https://wa.me/79218844177,,,viber://chat/?number=79218844177,,https://t.me/Pancake_house_rus,,,59.938611,30.348552,https://2gis.com/firm/70000001060937016
Chang,кафе аутентичной тайской кухни,Кафе; Доставка готовых блюд,"Невский проспект, 97",1 этаж,191036,Лиговка-Ямская,Центральный район,Санкт-Петербург,,Санкт-Петербург,Россия,Пн: 10:00-23:00; Вт: 10:00-23:00; Ср: 10:00-23:00; Чт: 10:00-23:00; Пт: 10:00-23:00; Сб: 10:00-23:00; Вс: 10:00-23:00,+03:00,4.3,182,89119235330,,,changneva@gmail.com,,http://changcafe.ru,,,,https://vk.com/changcafe,,,,,,https://t.me/changneva,,,59.930083,30.366845,https://2gis.com/firm/70000001057752859
Coffee-3,кофейня,Кофейни; Кафе; Кондитерские изделия,"проспект Медиков, 5 к7",5 этаж,197022,Аптекарский остров,Петроградский район,Санкт-Петербург,,Санкт-Петербург,Россия,Пн: 10:00-22:00; Вт: 10:00-22:00; Ср: 10:00-22:00; Чт: 10:00-22:00; Пт: 10:00-22:00; Сб: 10:00-22:00; Вс: 10:00-22:00,+03:00,4.1,178,89643200334,,,,,,,,,https://vk.com/coffee3spb,,,,,,https://t.me/coffee3spb,,,59.969583,30.316829,https://2gis.com/firm/70000001018420560
Holy Ribs,ресторан,Доставка готовых блюд; Бары; Кафе,"Жуковского, 12",1 этаж,191014,Литейный,Центральный район,Санкт-Петербург,,Санкт-Петербург,Россия,Пн: 15:00-24:00; Вт: 15:00-24:00; Ср: 13:00-01:00; Чт: 13:00-01:00; Пт: 13:00-02:00; Сб: 13:00-02:00; Вс: 13:00-24:00,+03:00,4.2,151,88126656601 (доп.2),89217433713,,,,http://chuck-family.ru,http://t.me/chuckfamily,,,,,,,,,,,,59.93605,30.353386,https://2gis.com/firm/70000001028875578
Mishka bar&cafe,кафе,Бары; Кафе,"Конногвардейский бульвар, 4",1 этаж,190098,Адмиралтейский,Адмиралтейский район,Санкт-Петербург,,Санкт-Петербург,Россия,Пн: 17:00-02:00; Вт: 17:00-02:00; Ср: 17:00-02:00; Чт: 17:00-02:00; Пт: 17:00-03:00; Сб: 17:00-03:00; Вс: 17:00-02:00,+03:00,3.9,99,89819471559 (администратор),,,,,http://cleanplatescafe.com/mishkacafe,,,,https://vk.com/mishkabar,,,,,,https://t.me/molodostvsyo,,,59.932971,30.298644,https://2gis.com/firm/5348552840527475
Чудо-Юдо,селфи-кафе,Кафе,"Социалистическая улица, 10",цокольный этаж,191002,Владимирский,Центральный район,Санкт-Петербург,,Санкт-Петербург,Россия,Пн: 12:00-21:00; Вт: 12:00-21:00; Ср: 12:00-21:00; Чт: 12:00-21:00; Пт: 12:00-21:00; Сб: 12:00-21:00; Вс: 12:00-21:00,+03:00,3.8,77,89219925725,,,,,,,,,,https://wa.me/79219925725,,,,,,,,59.923396,30.341338,https://2gis.com/firm/70000001055402560
Хачапури и вино,кафе грузинской кухни,Кафе; Доставка готовых блюд,"Правды, 9","цокольный, 1 этаж",191002,Владимирский,Центральный район,Санкт-Петербург,,Санкт-Петербург,Россия,Пн: 11:30-23:00; Вт: 11:30-23:00; Ср: 11:30-23:00; Чт: 11:30-23:00; Пт: 11:30-01:00; Сб: 11:30-01:00; Вс: 11:30-23:00,+03:00,3.9,295,88129028000 (служба бронирования),,,,,http://hachapuriivino.ru,,,,https://vk.com/hachapuriivino,,,,,,,,,59.923182,30.341715,https://2gis.com/firm/70000001018335067
Chang,кафе аутентичной тайской кухни,Кафе; Доставка готовых блюд,"улица Большая Конюшенная, 9",2 этаж,191186,Дворцовый,Центральный район,Санкт-Петербург,,Санкт-Петербург,Россия,Пн: 10:00-23:00; Вт: 10:00-23:00; Ср: 10:00-23:00; Чт: 10:00-23:00; Пт: 10:00-23:00; Сб: 10:00-23:00; Вс: 10:00-23:00,+03:00,4.1,238,89119255330,,,,,http://changcafe.ru,,,,https://vk.com/changcafe,,,,,,,,,59.939799,30.323713,https://2gis.com/firm/70000001028723691
Огурцы,инклюзивное кафе,Кафе; Доставка готовых блюд,"набережная реки Фонтанки, 96",9-Н1 помещение; 1 этаж,191180,Семёновский,Адмиралтейский район,Санкт-Петербург,,Санкт-Петербург,Россия,Пн: 10:00-21:00; Вт: 10:00-21:00; Ср: 10:00-21:00; Чт: 10:00-21:00; Пт: 10:00-21:00; Сб: 10:00-21:00; Вс: 10:00-21:00,+03:00,4.8,130,89819097109,,,,,http://prostieveschi.ru,,,,https://vk.com/ogurcicafe,,,,,,,,,59.924047,30.325449,https://2gis.com/firm/70000001040783720
Chuck,митерия,Доставка готовых блюд; Кафе,"Гороховая, 41",1 этаж,190031,Сенной,Адмиралтейский район,Санкт-Петербург,,Санкт-Петербург,Россия,Пн: 15:00-24:00; Вт: 15:00-24:00; Ср: 13:00-24:00; Чт: 13:00-24:00; Пт: 13:00-24:00; Сб: 13:00-24:00; Вс: 13:00-24:00 (по предварительной записи: пн-вс),+03:00,4.4,213,89215849394,,,,,http://chuck-family.ru,,,,https://vk.com/meatareachuck,,,,,,,,,59.929074,30.32093,https://2gis.com/firm/70000001017330601
Брынза,чебуречная,Доставка готовых блюд; Кафе,"Невский проспект, 50",1 этаж,191011,Дворцовый,Центральный район,Санкт-Петербург,,Санкт-Петербург,Россия,Пн: 00:00-24:00; Вт: 00:00-24:00; Ср: 00:00-24:00; Чт: 00:00-24:00; Пт: 00:00-24:00; Сб: 00:00-24:00; Вс: 00:00-24:00,+03:00,4.3,375,88126556237,88126556666 (служба доставки: пн-вс 9:00-1:00),,,,http://www.cafebrynza.ru,,,,https://vk.com/cafebrynza,,,,,,,,,59.934519,30.334944,https://2gis.com/firm/5348552839656855
Subzero,ресторан японской кухни,Кафе; Бары,"Рубинштейна, 38",1 этаж,191002,Владимирский,Центральный район,Санкт-Петербург,,Санкт-Петербург,Россия,Пн: 12:00-24:00; Вт: 12:00-24:00; Ср: 12:00-24:00; Чт: 12:00-24:00; Пт: 12:00-24:00; Сб: 12:00-24:00; Вс: 12:00-24:00,+03:00,4.3,155,88129076438,,,,,http://subzerosushi.ru,,,,,,,,,,,,,59.927276,30.343125,https://2gis.com/firm/70000001028700120
Республика кошек,котокафе,Кафе,"Якубовича, 10",1 этаж,190121,Адмиралтейский,Адмиралтейский район,Санкт-Петербург,,Санкт-Петербург,Россия,Пн: 10:00-22:00; Вт: 10:00-22:00; Ср: 10:00-22:00; Чт: 10:00-22:00; Пт: 10:00-22:00; Сб: 10:00-22:00; Вс: 10:00-22:00 (по предварительной записи: пн-вс),+03:00,3.8,123,88123120487,88129451951,,,,http://catsrepublic.ru,http://tiktok.com/@catsmuseum,,,https://vk.com/cats_republic,,,,,,https://t.me/catsmuseum,,,59.933136,30.301309,https://2gis.com/firm/70000001018165811
