Наименование,Описание,Рубрики,Адрес,Комментарий к адресу,Почтовый индекс,Микрорайон,Район,Город,Округ,Регион,Страна,Часы работы,Часовой пояс,Рейтинг,Количество отзывов,Телефон 1,Телефон 2,Телефон 3,E-mail 1,E-mail 2,Веб-сайт 1,Веб-сайт 2,Twitter,ВКонтакте,WhatsApp 1,WhatsApp 2,WhatsApp 3,Viber 1,Viber 2,Telegram 1,Telegram 2,YouTube,Широта,Долгота,2GIS URL
КофеБон,сеть кофеен,Пекарни; Кофейни; Кондитерские изделия; Продажа чая,"Большой Сампсониевский проспект, 80",1 этаж,194100,Сампсониевское,Выборгский район,Санкт-Петербург,,Санкт-Петербург,Россия,Пн: 08:00-21:00; Вт: 08:00-21:00; Ср: 08:00-21:00; Чт: 08:00-21:00; Пт: 08:00-21:00; Сб: 08:00-21:00; Вс: 09:00-21:00,+03:00,4.7,123,88123099510 (единый номер: пн-пт 10:00-20:00),,,marketing@coffeebon.ru,,http://coffeebon.ru,,,https://vk.com/coffee_bon,,,,,,https://t.me/coffe_bon,,,59.984831,30.333662,https://2gis.com/firm/70000001031657600
Цех85,пекарня-кондитерская,Кондитерские изделия; Пекарни; Кафе-кондитерские; Доставка готовых блюд; Кофейни,"улица Садовая, 25",1 этаж,191023,Муниципальный округ №78,Центральный район,Санкт-Петербург,,Санкт-Петербург,Россия,Пн: 07:00-21:00; Вт: 07:00-21:00; Ср: 07:00-21:00; Чт: 07:00-21:00; Пт: 07:00-21:00; Сб: 08:00-21:00; Вс: 08:00-21:00,+03:00,4.5,90,88005008985 (единый номер: пн-вс 8:00-22:00),,,info@tseh85.ru,,http://tseh85.ru,,,https://vk.com/tseh85,,,,,,https://t.me/tseh85bakery,,,59.929773,30.32457,https://2gis.com/firm/70000001028630292
Lunar bakery,кафе,Кафе; Пекарни; Кофейни; Доставка готовых блюд; Кондитерские изделия,"Моисеенко, 24",1 этаж,191144,Смольнинское,Центральный район,Санкт-Петербург,,Санкт-Петербург,Россия,Пн: 08:30-21:00; Вт: 08:30-21:00; Ср: 08:30-21:00; Чт: 08:30-21:00; Пт: 08:30-21:00; Сб: 08:30-21:00; Вс: 08:30-21:00,+03:00,4.7,15,89213819313,,,lunarpekarna@gmail.com,,,,,https://vk.com/lunarbakery,https://wa.me/79213819313,,,viber://chat/?number=79213819313,,,,,59.937595,30.389938,https://2gis.com/firm/70000001079603289
DongFang ShuYe Восточный листок,,Кофейни; Продажа чая; Продажа кофе,"Лиговский проспект, 57-59",2 этаж,191040,Владимирский,Центральный район,Санкт-Петербург,,Санкт-Петербург,Россия,Пн: 10:00-22:00; Вт: 10:00-22:00; Ср: 10:00-22:00; Чт: 10:00-22:00; Пт: 10:00-22:00; Сб: 10:00-22:00; Вс: 10:00-22:00,+03:00,5.0,27,,,,vostochnyi-listok@yandex.ru,,http://t.me/vostochnyilistok,,,https://vk.com/club221491558,,,,,,,,,59.928356,30.358891,https://2gis.com/firm/70000001079696396
Etlon coffee,сеть кофе-баров,Кофейни,"2-я Красноармейская улица, 3а",1 этаж,190005,Измайловское,Адмиралтейский район,Санкт-Петербург,,Санкт-Петербург,Россия,Пн: 08:00-21:00; Вт: 08:00-21:00; Ср: 08:00-21:00; Чт: 08:00-21:00; Пт: 08:00-21:00; Сб: 08:00-20:00; Вс: 09:00-20:00,+03:00,3.9,38,89992367777 (единая справочная: пн-вс 10:00-22:00),,,admin@etloncoffee.ru,,http://etlon.ru,,,https://vk.com/etloncoffee,https://wa.me/79992367777,,,viber://chat/?number=79992367777,,https://t.me/etloncoffee,,https://youtube.com/channel/UC3jxN8ac9WTKn6pY6oXF0FQ,59.915458,30.316673,https://2gis.com/firm/70000001027349097
Baggins Coffee,кофейня,Кофейни; Кондитерские изделия; Кулинарии; Мороженое; Продажа кофе,"Лиговский проспект, 119",цокольный этаж,191119,Владимирский,Центральный район,Санкт-Петербург,,Санкт-Петербург,Россия,Пн: 08:00-21:00; Вт: 08:00-21:00; Ср: 08:00-21:00; Чт: 08:00-21:00; Пт: 08:00-21:00; Сб: 08:00-21:00; Вс: 09:00-21:00,+03:00,4.0,56,88006007015 (единая справочная: пн-вс 10:00-19:00),,,info@bagginscoffee.ru,maps@bagginscoffee.ru,http://bagginscoffee.com,,,https://vk.com/bagginscoffee,,,,,,https://t.me/bagginscoffee_bot,https://t.me/BagginsCoffee,https://youtube.com/channel/UCBVX0L_WSz9Wr3mF8xcCXyw,59.918771,30.352425,https://2gis.com/firm/70000001029082618
Toggle Coffee,авиационная кофейня,Кофейни; Продажа кофе; Пекарни,"площадь Ленина, 3",1 этаж; вход через магазин Море Чая,195009,Финляндский,Калининский район,Санкт-Петербург,,Санкт-Петербург,Россия,Пн: 07:30-23:00; Вт: 07:30-23:00; Ср: 07:30-23:00; Чт: 07:30-23:00; Пт: 07:30-23:00; Сб: 09:30-23:00; Вс: 09:30-23:00,+03:00,4.9,76,88127772485,,,info@toggle.coffee,,http://toggle.coffee,,,,https://wa.me/79214094036,,,,,https://t.me/togglecoffee,https://t.me/+79214094036,,59.953726,30.356643,https://2gis.com/firm/70000001039261822
Albicocco,кафе-кондитерская,Кафе-кондитерские; Кофейни; Доставка готовых блюд,"Невский проспект, 35",2 этаж; вход с ул. Садовая,191011,Муниципальный округ №78,Центральный район,Санкт-Петербург,,Санкт-Петербург,Россия,Пн: 10:00-22:00; Вт: 10:00-22:00; Ср: 10:00-22:00; Чт: 10:00-22:00; Пт: 10:00-22:00; Сб: 10:00-22:00; Вс: 10:00-22:00,+03:00,3.7,16,88126305408,89213109545,,albicocco.spb@yandex.ru,,http://albicocco.ru,,,,https://wa.me/79312663513,,,viber://chat/?number=79312663513,,https://t.me/+79312663513,,,59.932158,30.329901,https://2gis.com/firm/70000001066414848
Coffee Break 128,кофейня,Кондитерские изделия; Кофейни,"Невский проспект, 128",1 этаж,191036,Смольнинское,Центральный район,Санкт-Петербург,,Санкт-Петербург,Россия,Пн: 08:00-21:00; Вт: 08:00-21:00; Ср: 08:00-21:00; Чт: 08:00-21:00; Пт: 08:00-21:00; Сб: 10:00-21:00; Вс: 10:00-21:00,+03:00,4.5,35,89810486620,,,,,http://coffee-break-128.clients.site,,,https://vk.com/coffeebreak128,,,,,,,,,59.930573,30.366245,https://2gis.com/firm/70000001064800241
Brunch,кофейня,Кофейни; Доставка готовых блюд,"Рылеева, 13",1 этаж,191014,Литейный,Центральный район,Санкт-Петербург,,Санкт-Петербург,Россия,Пн: 08:00-21:00; Вт: 08:00-21:00; Ср: 08:00-21:00; Чт: 08:00-21:00; Пт: 08:00-21:00; Сб: 09:00-22:00; Вс: 09:00-22:00,+03:00,4.6,170,89939707770,,,brunch.spb@yandex.ru,,,,,,https://wa.me/79939707770,,,,,https://t.me/brunchspb,,,59.942396,30.354625,https://2gis.com/firm/70000001044145847
Спэшл,кофейня,Кофейни; Продажа кофе; Календари / Открытки,"улица Большая Конюшенная, 4/6/8 лит В",1 этаж,191186,Дворцовый,Центральный район,Санкт-Петербург,,Санкт-Петербург,Россия,Пн: 09:00-21:00; Вт: 09:00-21:00; Ср: 09:00-21:00; Чт: 09:00-21:00; Пт: 09:00-21:00; Сб: 10:00-21:00; Вс: 10:00-21:00,+03:00,4.8,69,89211889219,,,speshl.coffee@gmail.com,,,,,,,,,,,https://t.me/speshl_coffee,,,59.938528,30.323744,https://2gis.com/firm/70000001061449568
Bodrum,кофейня,Кофейни; Продажа кофе; Кондитерские изделия,"Волховский переулок, 6",цокольный этаж,199004,Муниципальный округ №7,Василеостровский район,Санкт-Петербург,,Санкт-Петербург,Россия,Пн: 08:00-20:00; Вт: 08:00-20:00; Ср: 08:00-20:00; Чт: 08:00-20:00; Пт: 08:00-20:00; Сб: 09:00-20:00; Вс: 10:00-20:00,+03:00,5.0,18,,,,hitrow.aparts1001@gmail.com,,,,,,,,,,,,,,59.944864,30.28984,https://2gis.com/firm/70000001067350415
Coffee Racer,кофейня,Кофейни,"Введенская, 22",1 этаж,197198,Введенский,Петроградский район,Санкт-Петербург,,Санкт-Петербург,Россия,Пн: 09:00-21:00; Вт: 09:00-21:00; Ср: 09:00-21:00; Чт: 09:00-21:00; Пт: 09:00-21:00; Сб: 09:00-21:00; Вс: 09:00-21:00,+03:00,4.8,34,89215554789,,,,,http://coffee-racer.ru,,,,,,,,,https://t.me/coffeeracerspb,,,59.95533,30.30698,https://2gis.com/firm/70000001029175887
Кофестория,кофейня,Кофейни; Продажа кофе; Кафе-кондитерские; Пекарни; Доставка готовых блюд,"Большеохтинский проспект, 10",1 этаж,195027,Большая Охта,Красногвардейский район,Санкт-Петербург,,Санкт-Петербург,Россия,Пн: 08:00-21:00; Вт: 08:00-21:00; Ср: 08:00-21:00; Чт: 08:00-21:00; Пт: 08:00-21:00; Сб: 08:00-21:00; Вс: 08:00-21:00,+03:00,3.2,39,89219597148,,,kofestoria@mail.ru,,http://kofestoria.vsite.biz,,,https://vk.com/kofestoria,https://wa.me/79219597148,,,viber://chat/?number=79219597148,,https://t.me/+79219597148,,,59.952912,30.409629,https://2gis.com/firm/70000001018146675
Династия кофе,кофейня,Кофейни; Доставка готовых блюд,"Гражданский проспект, 78",1 этаж,195257,Академическое,Калининский район,Санкт-Петербург,,Санкт-Петербург,Россия,Пн: 08:00-21:00; Вт: 08:00-21:00; Ср: 08:00-21:00; Чт: 08:00-21:00; Пт: 08:00-21:00; Сб: 10:00-21:00; Вс: 10:00-21:00,+03:00,4.6,40,89650678413,,,zim-av@mail.ru,,,,,https://vk.com/dynastycoffee,https://wa.me/79650678413,,,,,,,,60.015055,30.398327,https://2gis.com/firm/70000001031947499
Kos. Place,кофейня,Кофейни; Продажа кофе; Продажа чая; Керамические изделия,"набережная реки Фонтанки, 86",1 этаж,191180,Владимирский,Центральный район,Санкт-Петербург,,Санкт-Петербург,Россия,Пн: 08:30-21:00; Вт: 08:30-21:00; Ср: 08:30-21:00; Чт: 08:30-21:00; Пт: 08:30-21:00; Сб: 09:00-21:00; Вс: 09:00-21:00,+03:00,4.6,60,89319992100,,,hello@kosplace.ru,,http://kosplace.ru,,,https://vk.com/kos.place,https://wa.me/79319992100,,,viber://chat/?number=79319992100,,,,,59.925996,30.33089,https://2gis.com/firm/70000001043922259
Городские кондитерские №1,кондитерская,Кофейни; Доставка готовых блюд; Кафе-кондитерские,"Большая Морская, 31",1 этаж,190031,Адмиралтейский,Адмиралтейский район,Санкт-Петербург,,Санкт-Петербург,Россия,Пн: 08:30-22:00; Вт: 08:30-22:00; Ср: 08:30-22:00; Чт: 08:30-22:00; Пт: 08:30-22:00; Сб: 08:30-22:00; Вс: 08:30-22:00,+03:00,4.0,40,88126777651,,,,,http://www.konditer1.ru,,,https://vk.com/citycakes,,,,,,,,,59.933501,30.311229,https://2gis.com/firm/70000001025645113
Sowa,,Кофейни; Кафе; Продажа кофе,"Жуковского, 47",1 этаж,191014,Литейный,Центральный район,Санкт-Петербург,,Санкт-Петербург,Россия,Пн: 09:00-22:00; Вт: 09:00-22:00; Ср: 09:00-22:00; Чт: 09:00-22:00; Пт: 09:00-23:00; Сб: 11:00-23:00; Вс: 11:00-23:00,+03:00,4.9,74,89633405806,,,k55688@yandex.ru,,http://sowa-cafe.tilda.ws,,,,https://wa.me/79633405806,,,,,https://t.me/sowaspb,,,59.935727,30.358882,https://2gis.com/firm/70000001066912578
Бублик,пекарня-кондитерская,Кофейни; Пекарни; Кондитерские изделия; Кафе-кондитерские; Доставка готовых блюд,"Ясная, 11",1 этаж,188689,,,,Всеволожский муниципальный район,Ленинградская область,Россия,Пн: 08:00-22:00; Вт: 08:00-22:00; Ср: 08:00-22:00; Чт: 08:00-22:00; Пт: 08:00-22:00; Сб: 08:00-22:00; Вс: 08:00-22:00,+03:00,4.1,34,89500333128,,,bikerspb@mail.ru,,http://bublik-yanino.clients.site/,,,https://vk.com/bublik.yanino,https://wa.me/79500333128,,,viber://chat/?number=79500333128,,https://t.me/bublikyanino,https://t.me/+79500333128,,59.957242,30.597538,https://2gis.com/firm/70000001035400659
Вафли,кофейня,Кофейни; Кондитерские изделия,"Будапештская, 17 к1",20н помещение,192212,Купчино,Фрунзенский район,Санкт-Петербург,,Санкт-Петербург,Россия,Пн: 10:00-21:00; Вт: 10:00-21:00; Ср: 10:00-21:00; Чт: 10:00-21:00; Пт: 10:00-21:00; Сб: 10:00-21:00; Вс: 10:00-21:00,+03:00,4.6,5,89217579750,,,,,,,,,,,,,,,,,59.865555,30.37181,https://2gis.com/firm/70000001078924377
Кофейня №1,,Кофейни; Доставка готовых блюд,"Кирпичный переулок, 3",1 этаж,191186,Муниципальный округ №78,Центральный район,Санкт-Петербург,,Санкт-Петербург,Россия,Пн: 10:00-23:30; Вт: 10:00-23:30; Ср: 10:00-23:30; Чт: 10:00-23:30; Пт: 10:00-02:00; Сб: 10:00-02:00; Вс: 10:00-23:30,+03:00,3.8,413,88129349200,,,help@delmar-group.ru,,http://delmar-spb.ru/restorany/?v=kofeynya-1,,,https://vk.com/coffeen1,,,,,,,,,59.935727,30.315506,https://2gis.com/firm/70000001025552346
Территория Кофе,кофейня-кондитерская,Кофейни; Продажа кофе,"Каменноостровский проспект, 31-33",1 этаж,197022,Аптекарский остров,Петроградский район,Санкт-Петербург,,Санкт-Петербург,Россия,Пн: 07:00-22:00; Вт: 07:00-22:00; Ср: 07:00-22:00; Чт: 07:00-22:00; Пт: 07:00-22:00; Сб: 07:00-22:00; Вс: 07:00-22:00,+03:00,4.6,124,89990695939,,,fragen99@mail.ru,,,,,https://vk.com/territoria_coffee_spb,https://wa.me/79990695939,,,,,https://t.me/+79990695939,,,59.964957,30.312589,https://2gis.com/firm/70000001055971053
Coffee 232,спешелти кофейня,Кофейни,"Лиговский проспект, 232 ст1",1 этаж,192007,Волковское,Фрунзенский район,Санкт-Петербург,,Санкт-Петербург,Россия,Пн: 08:00-20:00; Вт: 08:00-20:00; Ср: 08:00-20:00; Чт: 08:00-20:00; Пт: 08:00-20:00; Сб: 09:00-20:00; Вс: 09:00-20:00,+03:00,4.7,25,89112017207,,,cff232@yandex.ru,,http://coffee-232.clients.site,,,,https://wa.me/79112017207,,,,,https://t.me/+79112017207,,,59.906308,30.344693,https://2gis.com/firm/70000001057843654
День хлеба,кофейня-пекарня,Кофейни; Кафе-кондитерские; Продажа кофе; Пекарни,"улица Подводника Кузьмина, 44в",1 этаж,198215,Княжево,Кировский район,Санкт-Петербург,,Санкт-Петербург,Россия,Пн: 09:00-20:00; Вт: 09:00-20:00; Ср: 09:00-20:00; Чт: 09:00-20:00; Пт: 09:00-20:00; Сб: 10:00-20:00; Вс: 10:00-20:00,+03:00,4.8,27,89217778213,,,denxleba@mail.ru,,,,,https://vk.com/the.breadday,https://wa.me/79217778213,,,,,https://t.me/+79217778213,,,59.84466,30.264312,https://2gis.com/firm/70000001065632086
Сообщество,кофейня,Кондитерские изделия; Доставка готовых блюд; Кофейни,"Короленко, 9",1 этаж,191014,Литейный,Центральный район,Санкт-Петербург,,Санкт-Петербург,Россия,Пн: 09:00-21:00; Вт: 09:00-21:00; Ср: 09:00-21:00; Чт: 09:00-21:00; Пт: 09:00-21:00; Сб: 09:00-21:00; Вс: 09:00-21:00,+03:00,4.5,76,89811519481,,,moznocoffee@gmail.com,,http://coffeebar-community.ru,,,https://vk.com/coffeebar_community,https://wa.me/79811519481,,,viber://chat/?number=79811519481,,https://t.me/coffeebar_community,,,59.941914,30.350609,https://2gis.com/firm/70000001043899588
El Dorado,колумбийская кофейня,Кофейни; Продажа кофе; Пекарни,"Лыжный переулок, 4 к3",1 этаж,197345,Муниципальный округ №65,Приморский район,Санкт-Петербург,,Санкт-Петербург,Россия,Пн: 09:00-21:00; Вт: 09:00-21:00; Ср: 09:00-21:00; Чт: 09:00-21:00; Пт: 09:00-21:00; Сб: 09:00-21:00; Вс: 09:00-21:00,+03:00,5.0,9,89052500550,,,offers@coffeeeldorado.com,,http://coffeeeldorado.com,,,,,,,,,,,,59.99799,30.196779,https://2gis.com/firm/70000001056419506
CoffeeIN,авторская кофейня,Кофейни; Кондитерские изделия; Продажа кофе,"Литейный проспект, 18/2",1 этаж; вход с Литейного проспекта,191028,Литейный,Центральный район,Санкт-Петербург,,Санкт-Петербург,Россия,Пн: 09:00-21:30; Вт: 09:00-21:30; Ср: 09:00-21:30; Чт: 09:00-21:30; Пт: 09:00-21:30; Сб: 10:00-21:30; Вс: 10:00-21:30,+03:00,4.3,17,89819678383,,,info.coffee22@gmail.com,,http://coffeein.spb.ru,http://t.me/coffee_in1,,https://vk.com/1coffeein,https://wa.me/79218621322,,,,,,,,59.944409,30.348919,https://2gis.com/firm/70000001068076118
Галата,Galata bakery,Пекарни; Кофейни; Доставка готовых блюд; Кафе; Кондитерские изделия,"Курская, 24",1 этаж,192007,Волковское,Фрунзенский район,Санкт-Петербург,,Санкт-Петербург,Россия,Пн: 10:00-22:00; Вт: 10:00-22:00; Ср: 10:00-22:00; Чт: 10:00-22:00; Пт: 10:00-22:00; Сб: 10:00-22:00; Вс: 10:00-22:00,+03:00,3.8,17,89110987341,,,,,http://galata-restaurant.ru,,,https://vk.com/galata_bakery,https://wa.me/79110987341,,,,,,,,59.911874,30.350018,https://2gis.com/firm/70000001054711643
Good Itea,бабл ти кафе,Кофейни; Кондитерские изделия,"Гороховая, 45а",1 этаж; слева от арки,190031,Сенной,Адмиралтейский район,Санкт-Петербург,,Санкт-Петербург,Россия,Пн: 10:00-23:00; Вт: 10:00-23:00; Ср: 10:00-23:00; Чт: 10:00-23:00; Пт: 10:00-23:00; Сб: 10:00-23:00; Вс: 10:00-23:00,+03:00,5.0,396,89516606292,,,gooditea@yandex.ru,,,,,https://vk.com/good_itea,https://wa.me/79516606292,,,,,https://t.me/gooditea,,,59.928049,30.322463,https://2gis.com/firm/70000001067978369
Труффальдино,кофейня,Кофейни; Продажа кофе,"11-я линия В.О., 54",1 этаж; бутик-отель За Кулисами,199178,Васильевский,Василеостровский район,Санкт-Петербург,,Санкт-Петербург,Россия,Пн: 12:00-21:00; Вт: 12:00-21:00; Ср: 12:00-21:00; Чт: 12:00-21:00; Пт: 12:00-21:00; Сб: 12:00-21:00; Вс: 12:00-21:00,+03:00,5.0,3,88127111154,89650702267,,,,http://zakulisamispb.ru/coffee/,,,https://vk.com/truffaldino_coffee,,,,,,https://t.me/+79650702267,,,59.944257,30.270206,https://2gis.com/firm/70000001065941128
Good Cup,кофейня,Кофейни,"Пискарёвский проспект, 145 к6 ст1",,195273,Полюстрово,Красногвардейский район,Санкт-Петербург,,Санкт-Петербург,Россия,Пн: 07:00-21:00; Вт: 07:00-21:00; Ср: 07:00-21:00; Чт: 07:00-21:00; Пт: 07:00-21:00; Сб: 09:00-21:00; Вс: 09:00-21:00,+03:00,5.0,7,89958890925,,,good.cup.cafe@mail.ru,,,,,,https://wa.me/79958890925,,,,,,,,60.002763,30.450687,https://2gis.com/firm/70000001077142860
Coffit,кофейня,Кофейни; Кондитерские изделия; Продажа кофе,"набережная канала Грибоедова, 15",цокольный этаж,191186,Дворцовый,Центральный район,Санкт-Петербург,,Санкт-Петербург,Россия,Пн: 07:00-23:00; Вт: 07:00-23:00; Ср: 07:00-23:00; Чт: 07:00-23:00; Пт: 07:00-23:00; Сб: 07:00-23:00; Вс: 07:00-23:00,+03:00,4.0,136,89207621117,,,lda2004@inbox.ru,,http://Coffit.spb.ru,,,,https://wa.me/79207621117,,,,,,,,59.936715,30.326515,https://2gis.com/firm/70000001031423727
Double bubble tea,кафе,Кофейни; Доставка готовых блюд,"проспект Стачек, 99",,198302,Красненькая речка,Кировский район,Санкт-Петербург,,Санкт-Петербург,Россия,Пн: 10:00-22:00; Вт: 10:00-22:00; Ср: 10:00-22:00; Чт: 10:00-22:00; Пт: 10:00-22:00; Сб: 10:00-22:00; Вс: 10:00-22:00,+03:00,4.4,17,89217874599,,,doublebubble.spb@yandex.ru,,http://dbtea.ru,,,https://vk.com/doublebubbletea,https://wa.me/79217874599,,,,,,,,59.858429,30.248753,https://2gis.com/firm/70000001075812733
Milanobar,кофейня,Кофейни; Продажа кофе; Продажа чая,"Невский проспект, 104",цокольный этаж,191025,Литейный,Центральный район,Санкт-Петербург,,Санкт-Петербург,Россия,Пн: 09:00-21:00; Вт: 09:00-21:00; Ср: 09:00-21:00; Чт: 09:00-21:00; Пт: 09:00-21:00; Сб: 12:00-18:00; Вс: 12:00-18:00,+03:00,4.7,23,89119291886,,,nevskiy104@caffebonomi.ru,,,,,https://vk.com/milanobar_caffe,https://wa.me/79119291886,,,,,https://t.me/+79119291886,,,59.932001,30.356723,https://2gis.com/firm/70000001024381433
Lines coffee & breakfast,кафе,Кафе; Кофейни; Пекарни,"26-я линия В.О., 7",1 этаж,199106,Муниципальный округ №7,Василеостровский район,Санкт-Петербург,,Санкт-Петербург,Россия,Пн: 08:00-21:00; Вт: 08:00-21:00; Ср: 08:00-21:00; Чт: 08:00-21:00; Пт: 08:00-21:00; Сб: 09:00-22:00; Вс: 09:00-22:00,+03:00,4.8,41,89934922425,,,,,http://linescafe.tilda.ws,http://t.me/linescoffeebakery,,https://vk.com/club220416290,https://wa.me/79934922425,,,,,,,,59.930692,30.262362,https://2gis.com/firm/70000001068838988
Вкусно — и точка,кафе,Кофейни,"бульвар Новаторов, 11 к2 лит А",2 этаж,198216,Княжево,Кировский район,Санкт-Петербург,,Санкт-Петербург,Россия,Пн: 07:30-23:00; Вт: 07:30-23:00; Ср: 07:30-23:00; Чт: 07:30-23:00; Пт: 07:30-23:00; Сб: 07:30-23:00; Вс: 07:30-23:00,+03:00,2.0,11,,,,,,http://vkusnoitochka.ru,,,https://vk.com/vkusno_itochka,,,,,,https://t.me/vit_russia,,,59.85084,30.268169,https://2gis.com/firm/70000001034001528
Aster bakery,пекарня,Пекарни; Кофейни; Продажа кофе,"проспект Римского-Корсакова, 22",1 этаж,190068,Коломна,Адмиралтейский район,Санкт-Петербург,,Санкт-Петербург,Россия,Пн: 09:00-23:00; Вт: 09:00-23:00; Ср: 09:00-23:00; Чт: 09:00-23:00; Пт: 09:00-23:00; Сб: 09:00-23:00; Вс: 09:00-23:00,+03:00,4.5,14,89213540004,,,,,http://astercafe.ru,,,,,,,,,,,,59.92253,30.295229,https://2gis.com/firm/70000001077831731
FoxВиль,креативное пространство,Антикафе; Коворкинг; Кофейни; Организация и проведение праздников,"Московский проспект, 183-185 лит А",1 этаж,196066,Пулковский меридиан,Московский район,Санкт-Петербург,,Санкт-Петербург,Россия,Пн: 10:00-23:00; Вт: 10:00-23:00; Ср: 10:00-23:00; Чт: 10:00-23:00; Пт: 10:00-24:00; Сб: 10:00-24:00; Вс: 10:00-23:00 (по предварительному звонку),+03:00,5.0,13,89533450025,,,,,http://foxvillespace.ru,,,https://vk.com/foxville_spb,,,,,,https://t.me/foxvillespacespb,,,59.856705,30.318458,https://2gis.com/firm/70000001067631281
Sibaristica Coffee Roasters,,Кофейни; Продажа кофе,"набережная Обводного канала, 199-201 лит К",1 этаж,190020,Екатерингофский,Адмиралтейский район,Санкт-Петербург,,Санкт-Петербург,Россия,Пн: 08:30-21:00; Вт: 08:30-21:00; Ср: 08:30-21:00; Чт: 08:30-21:00; Пт: 08:30-21:00; Сб: 10:00-21:00; Вс: 10:00-21:00,+03:00,4.7,133,88123094216 (доп.3),,,,,http://t.me/sibaristica_coffee,http://cafe.sibaristica.com,,https://vk.com/sibaristica,,,,,,,,,59.910412,30.284126,https://2gis.com/firm/70000001035474458
Pitcher,кофейня,Кофейни; Продажа кофе,"улица Бассейная, 12н",1 этаж,196070,Пулковский меридиан,Московский район,Санкт-Петербург,,Санкт-Петербург,Россия,Пн: 08:00-22:00; Вт: 08:00-22:00; Ср: 08:00-22:00; Чт: 08:00-22:00; Пт: 08:00-22:00; Сб: 09:00-22:00; Вс: 09:00-22:00,+03:00,4.8,80,89313393043,,,,,http://pitcherbar.ru,,,,,,,,,https://t.me/pitcherbar,,,59.866139,30.314656,https://2gis.com/firm/70000001018675566
Цех85,пекарня-кондитерская,Кондитерские изделия; Пекарни; Доставка готовых блюд; Кафе-кондитерские; Кофейни,"бульвар Новаторов, 17",1 этаж,198216,Княжево,Кировский район,Санкт-Петербург,,Санкт-Петербург,Россия,Пн: 08:00-22:00; Вт: 08:00-22:00; Ср: 08:00-22:00; Чт: 08:00-22:00; Пт: 08:00-22:00; Сб: 09:00-21:00; Вс: 09:00-21:00,+03:00,4.6,14,88005008985 (единый номер: пн-вс 8:00-22:00),,,info@tseh85.ru,,http://tseh85.ru,,,https://vk.com/tseh85,,,,,,https://t.me/tseh85bakery,,,59.848946,30.267434,https://2gis.com/firm/70000001028630364
Слой х Вспышка,кафе-пекарня,Кафе-кондитерские; Кофейни,"Решетникова, 12",1 этаж,196105,Московская застава,Московский район,Санкт-Петербург,,Санкт-Петербург,Россия,Пн: 08:00-21:00; Вт: 08:00-21:00; Ср: 08:00-21:00; Чт: 08:00-21:00; Пт: 08:00-21:00; Сб: 08:00-21:00; Вс: 08:00-21:00,+03:00,3.7,17,89219261105,,,,,http://sloy.pro,,,,,,,,,https://t.me/sloy_bakery,,,59.879034,30.324173,https://2gis.com/firm/70000001067444701
Буше,пекарня-кондитерская,Кондитерские изделия; Пекарни; Доставка готовых блюд; Кофейни,"Московский проспект, 165",1 этаж,196070,Пулковский меридиан,Московский район,Санкт-Петербург,,Санкт-Петербург,Россия,Пн: 08:00-21:00; Вт: 08:00-21:00; Ср: 08:00-21:00; Чт: 08:00-21:00; Пт: 08:00-21:00; Сб: 08:00-21:00; Вс: 08:00-21:00,+03:00,3.7,56,88126405151 (единая справочная: пн-чт 9:00-18:00; пт 9:00-17:00),,,,,http://bushe.ru,http://shop.bushe.ru,,https://vk.com/bushe.bakery,,,,,,https://t.me/bushe_delivery_bot,,,59.866344,30.318794,https://2gis.com/firm/5348553839120356
Грузинские пекарни,,Пекарни; Кофейни; Доставка готовых блюд,"Дачный проспект, 21 к1 лит А",1 этаж,198217,Дачное,Кировский район,Санкт-Петербург,,Санкт-Петербург,Россия,Пн: 09:00-23:00; Вт: 09:00-23:00; Ср: 09:00-23:00; Чт: 09:00-23:00; Пт: 09:00-23:00; Сб: 09:00-23:00; Вс: 09:00-23:00,+03:00,3.8,19,89602555850,,,,,,,,,https://wa.me/79602555850,,,,,,,,59.840011,30.257515,https://2gis.com/firm/70000001059724666
Дом Флоу,кофейня,Кофейни; Продажа кофе; Продажа чая,"улица Садовая, 21а",1 этаж,191023,Муниципальный округ №78,Центральный район,Санкт-Петербург,,Санкт-Петербург,Россия,Пн: 08:00-21:00; Вт: 08:00-21:00; Ср: 08:00-21:00; Чт: 08:00-21:00; Пт: 08:00-21:00; Сб: 08:00-21:00; Вс: 08:00-21:00,+03:00,4.0,53,89118209920,,,,,http://flowcoffee.ru,,,https://vk.com/flowcoffeecompany,,,,,,,,,59.930087,30.325253,https://2gis.com/firm/70000001067194148
Coffeeshop company,кофейня,Кофейни; Доставка готовых блюд; Кафе,"Московский проспект, 216",1 этаж,196066,Звездное,Московский район,Санкт-Петербург,,Санкт-Петербург,Россия,Пн: 08:00-23:00; Вт: 08:00-23:00; Ср: 08:00-23:00; Чт: 08:00-23:00; Пт: 08:00-23:00; Сб: 08:00-23:00; Вс: 08:00-23:00,+03:00,3.7,41,89602602389,,,,,http://www.coffeeshopcompany.ru,,,https://vk.com/csc,,,,,,,,,59.848806,30.322249,https://2gis.com/firm/70000001028008152
Wahaha,русско-китайское кафе,Кофейни; Доставка готовых блюд,"Загородный проспект, 70",1 этаж,190013,Семёновский,Адмиралтейский район,Санкт-Петербург,,Санкт-Петербург,Россия,Пн: 09:00-22:00; Вт: 09:00-22:00; Ср: 09:00-22:00; Чт: 09:00-22:00; Пт: 09:00-22:00; Сб: 09:00-22:00; Вс: 09:00-22:00,+03:00,3.9,99,89817878803,,,,,,,,https://vk.com/wahaha.tea.coffee,https://wa.me/79817878803,,,,,https://t.me/Wahaha_spb,,,59.917186,30.32003,https://2gis.com/firm/70000001060683985
Север-Метрополь,кафе-кондитерская,Кафе-кондитерские; Кофейни; Кондитерские изделия; Пекарни,"Московский проспект, 195",1 этаж,196066,Пулковский меридиан,Московский район,Санкт-Петербург,,Санкт-Петербург,Россия,Пн: 08:00-22:00; Вт: 08:00-22:00; Ср: 08:00-22:00; Чт: 08:00-22:00; Пт: 08:00-22:00; Сб: 08:00-22:00; Вс: 09:00-22:00,+03:00,3.7,29,88124418206,,,,,http://sever-metropol.ru,,,https://vk.com/sever.metropol,,,,,,https://t.me/severmetropol,,,59.850047,30.320976,https://2gis.com/firm/70000001055218198
Характер кофе,кофейня,Кофейни,"набережная реки Фонтанки, 109",1 этаж,190031,Сенной,Адмиралтейский район,Санкт-Петербург,,Санкт-Петербург,Россия,Пн: 09:00-21:00; Вт: 09:00-21:00; Ср: 09:00-21:00; Чт: 09:00-21:00; Пт: 09:00-21:00; Сб: 10:00-21:00; Вс: 10:00-21:00,+03:00,4.7,164,89817642070,,,,,,,,https://vk.com/characterofcoffee,,,,,,,,,59.922885,30.318749,https://2gis.com/firm/70000001019239653
5/14,пекарня,Пекарни; Кофейни,"проезд 5-й Предпортовый, 2",1 этаж,196240,Пулковский меридиан,Московский район,Санкт-Петербург,,Санкт-Петербург,Россия,Пн: 07:30-21:30; Вт: 07:30-21:30; Ср: 07:30-21:30; Чт: 07:30-21:30; Пт: 07:30-21:30; Сб: 09:00-20:00; Вс: 09:00-20:00,+03:00,4.3,39,89111664901,,,,,,,,,https://wa.me/79111664901,,,,,,,,59.840898,30.313102,https://2gis.com/firm/70000001050748394
Мишка bakery,пекарня,Пекарни; Кофейни; Кондитерские изделия,"проспект Народного Ополчения, 10",1 этаж,198216,Княжево,Кировский район,Санкт-Петербург,,Санкт-Петербург,Россия,Пн: 08:00-23:00; Вт: 08:00-23:00; Ср: 08:00-23:00; Чт: 08:00-23:00; Пт: 08:00-23:00; Сб: 08:00-23:00; Вс: 08:00-23:00,+03:00,4.7,52,89681854608,,,,,,,,https://vk.com/mishka_bakery,,,,,,,,,59.850441,30.281186,https://2gis.com/firm/70000001035119930
Cinnabon,кофейня-пекарня,Пекарни; Кафе-кондитерские; Кофейни,"проспект Космонавтов, 14",1 этаж,196244,Гагаринское,Московский район,Санкт-Петербург,,Санкт-Петербург,Россия,Пн: 10:00-22:00; Вт: 10:00-22:00; Ср: 10:00-22:00; Чт: 10:00-22:00; Пт: 10:00-22:00; Сб: 10:00-22:00; Вс: 10:00-22:00,+03:00,4.7,11,,,,,,http://cinnabonrussia.com,,,https://vk.com/cinnabon_rus,,,,,,,,https://youtube.com/user/cinnaboninc,59.868694,30.349356,https://2gis.com/firm/70000001039968589
Слой,кафе-пекарня,Пекарни; Кафе; Кондитерские изделия; Кофейни,"Маяковского, 3",1 этаж,191025,Литейный,Центральный район,Санкт-Петербург,,Санкт-Петербург,Россия,Пн: 07:58-21:03; Вт: 07:58-21:03; Ср: 07:58-21:03; Чт: 07:58-21:03; Пт: 07:58-21:03; Сб: 07:58-21:03; Вс: 07:58-21:03,+03:00,4.5,148,88129812255,,,,,http://sloy.pro,,,,,,,,,https://t.me/sloy_bakery,,,59.933837,30.35489,https://2gis.com/firm/70000001055474886
Смена,кофейня,Кофейни,"Басков переулок, 20",1 этаж,191014,Литейный,Центральный район,Санкт-Петербург,,Санкт-Петербург,Россия,Пн: 08:00-20:00; Вт: 08:00-20:00; Ср: 08:00-20:00; Чт: 08:00-20:00; Пт: 08:00-20:00; Сб: 09:00-20:00; Вс: 09:00-20:00,+03:00,4.5,155,89118131550,,,,,,,,,,,,,,https://t.me/smenaspb,,,59.939606,30.359693,https://2gis.com/firm/70000001028761887
Цех85,пекарня-кондитерская,Кондитерские изделия; Пекарни; Кафе-кондитерские; Доставка готовых блюд; Кофейни,"улица Типанова, 7",1 этаж,196135,Звездное,Московский район,Санкт-Петербург,,Санкт-Петербург,Россия,Пн: 07:00-21:00; Вт: 07:00-21:00; Ср: 07:00-21:00; Чт: 07:00-21:00; Пт: 07:00-21:00; Сб: 08:00-22:00; Вс: 08:00-22:00,+03:00,3.6,33,88005008985 (единый номер: пн-вс 8:00-22:00),,,info@tseh85.ru,,http://tseh85.ru,,,https://vk.com/tseh85,,,,,,https://t.me/tseh85bakery,,,59.852663,30.330545,https://2gis.com/firm/70000001041389742
Республика кошек,котокафе,Кофейни,"Якубовича, 10",1 этаж,190121,Адмиралтейский,Адмиралтейский район,Санкт-Петербург,,Санкт-Петербург,Россия,Пн: 10:00-22:00; Вт: 10:00-22:00; Ср: 10:00-22:00; Чт: 10:00-22:00; Пт: 10:00-22:00; Сб: 10:00-22:00; Вс: 10:00-22:00,+03:00,3.8,123,88123120487,88129451951,,,,http://catsrepublic.ru,http://tiktok.com/@catsmuseum,,https://vk.com/cats_republic,,,,,,https://t.me/catsmuseum,,,59.933136,30.301309,https://2gis.com/firm/70000001018165811
Мишка bakery,пекарня,Пекарни; Кофейни; Мороженое,"проезд Предпортовый 2-й, 6 ст1",1 этаж,196240,Новоизмайловское,Московский район,Санкт-Петербург,,Санкт-Петербург,Россия,Пн: 08:00-23:00; Вт: 08:00-23:00; Ср: 08:00-23:00; Чт: 08:00-23:00; Пт: 08:00-23:00; Сб: 08:00-23:00; Вс: 08:00-23:00,+03:00,3.8,16,89006436938,,,,,,,,https://vk.com/mishka_bakery,,,,,,,,,59.840088,30.303995,https://2gis.com/firm/70000001059761600
Буше,пекарня-кондитерская,Пекарни; Доставка готовых блюд; Кофейни,"улица Типанова, 25 лит А",1 этаж,196135,Гагаринское,Московский район,Санкт-Петербург,,Санкт-Петербург,Россия,Пн: 08:30-21:00; Вт: 08:30-21:00; Ср: 08:30-21:00; Чт: 08:30-21:00; Пт: 08:30-21:00; Сб: 08:30-21:00; Вс: 08:30-21:00,+03:00,3.9,49,88126405151 (единая справочная: пн-чт 9:00-18:00; пт 9:00-17:00),,,,,http://bushe.ru,http://shop.bushe.ru,,https://vk.com/bushe.bakery,,,,,,https://t.me/bushe_delivery_bot,,,59.853404,30.347703,https://2gis.com/firm/70000001039910764
Своя комната,кофейня,Кофейни,"улица Декабристов, 55",1 этаж,190121,Коломна,Адмиралтейский район,Санкт-Петербург,,Санкт-Петербург,Россия,Пн: 09:00-20:00; Вт: 09:00-20:00; Ср: 09:00-20:00; Чт: 09:00-20:00; Пт: 09:00-20:00; Сб: 10:00-20:00; Вс: 10:00-20:00,+03:00,4.5,68,89215507461,,,,,,,,,,,,,,,,,59.923808,30.283316,https://2gis.com/firm/70000001022525006
Буше,пекарня-кондитерская,Пекарни; Кофейни; Кафе-кондитерские; Доставка готовых блюд,"Невский проспект, 114-116",1 этаж,191025,Литейный,Центральный район,Санкт-Петербург,,Санкт-Петербург,Россия,Пн: 09:00-23:00; Вт: 09:00-23:00; Ср: 09:00-23:00; Чт: 09:00-23:00; Пт: 09:00-23:00; Сб: 09:00-23:00; Вс: 09:00-23:00,+03:00,3.9,84,88126405151 (единая справочная: пн-чт 9:00-18:00; пт 9:00-17:00),,,,,http://bushe.ru,http://shop.bushe.ru,,https://vk.com/bushe.bakery,,,,,,https://t.me/bushe_delivery_bot,,,59.931559,30.358932,https://2gis.com/firm/70000001052234377
Civil,кофейня,Кофейни; Продажа кофе,"улица Большая Конюшенная, 19",1-2 этаж,191186,Дворцовый,Центральный район,Санкт-Петербург,,Санкт-Петербург,Россия,Пн: 09:00-21:00; Вт: 09:00-21:00; Ср: 09:00-21:00; Чт: 09:00-21:00; Пт: 09:00-22:00; Сб: 09:00-22:00; Вс: 09:00-21:00,+03:00,4.3,140,89692063095,88123177111 (единая справочная: круглосуточно),,,,,,,https://vk.com/civil.coffeebar,,,,,,https://t.me/civilcoffeebar,,,59.9384,30.32182,https://2gis.com/firm/70000001051040583
Bonch,кофейня,Кофейни; Доставка готовых блюд; Кафе,"Большая Морская, 16",1 этаж,191186,Муниципальный округ №78,Центральный район,Санкт-Петербург,,Санкт-Петербург,Россия,Пн: 08:30-23:00; Вт: 08:30-23:00; Ср: 08:30-23:00; Чт: 08:30-23:00; Пт: 08:30-23:00; Сб: 10:00-23:00; Вс: 10:00-21:00,+03:00,4.5,272,88127407083,,,,,http://www.bonchcoffee.ru,,,,,,,,,,,,59.935172,30.316746,https://2gis.com/firm/70000001007020452
Doris fragments,кофейня,Кофейни,"Тележная, 8-10",1 этаж,191024,Лиговка-Ямская,Центральный район,Санкт-Петербург,,Санкт-Петербург,Россия,Пн: 09:00-21:00; Вт: 09:00-21:00; Ср: 09:00-21:00; Чт: 09:00-21:00; Пт: 09:00-21:00; Сб: 09:00-21:00; Вс: 09:00-21:00,+03:00,4.5,39,89959979801,,,,,http://doriscoffee.ru,,,,,,,,,,,,59.926488,30.373722,https://2gis.com/firm/70000001056370957
Stars coffee,кофейня,Кофейни,"улица Бухарестская, 30",1 этаж,192102,Волковское,Фрунзенский район,Санкт-Петербург,,Санкт-Петербург,Россия,Пн: 08:00-22:00; Вт: 08:00-22:00; Ср: 08:00-22:00; Чт: 08:00-22:00; Пт: 08:00-22:00; Сб: 10:00-22:00; Вс: 10:00-22:00,+03:00,4.1,49,,,,,,http://stars-coffee.ru,,,https://vk.com/starscoffee_official,,,,,,,,,59.883598,30.368905,https://2gis.com/firm/70000001006479585
Cinnabon,кофейня-пекарня,Кофейни; Пекарни; Кафе-кондитерские,"Невский проспект, 71/1",1 этаж,191025,Владимирский,Центральный район,Санкт-Петербург,,Санкт-Петербург,Россия,Пн: 10:00-23:00; Вт: 10:00-23:00; Ср: 10:00-23:00; Чт: 10:00-23:00; Пт: 10:00-23:00; Сб: 10:00-23:00; Вс: 10:00-23:00,+03:00,4.5,166,88126403544,,,,,http://cinnabonrussia.com,,,https://vk.com/cinnabon_rus,,,,,,,,https://youtube.com/user/cinnaboninc,59.931513,30.35506,https://2gis.com/firm/70000001056385141
Цех85,пекарня-кондитерская,Кондитерские изделия; Пекарни; Кафе-кондитерские; Доставка готовых блюд; Кофейни,"проспект Славы, 30 к1",1 этаж,192071,Купчино,Фрунзенский район,Санкт-Петербург,,Санкт-Петербург,Россия,Пн: 08:00-22:00; Вт: 08:00-22:00; Ср: 08:00-22:00; Чт: 08:00-22:00; Пт: 08:00-22:00; Сб: 09:00-22:00; Вс: 09:00-22:00,+03:00,3.6,5,88005008985 (единый номер: пн-вс 8:00-22:00),,,info@tseh85.ru,,http://tseh85.ru,,,https://vk.com/tseh85,,,,,,https://t.me/tseh85bakery,,,59.858389,30.387844,https://2gis.com/firm/70000001077392502
Stim,,Кофейни; Доставка готовых блюд,"Гражданская, 13",1 этаж,190031,Сенной,Адмиралтейский район,Санкт-Петербург,,Санкт-Петербург,Россия,Пн: 09:00-20:00; Вт: 09:00-20:00; Ср: 09:00-20:00; Чт: 09:00-20:00; Пт: 09:00-21:00; Сб: 09:00-21:00; Вс: 09:00-20:00,+03:00,3.9,188,89939617112,,,,,http://stimcoffeehome.ru,,,https://vk.com/stimcoffeehome,,,,,,,,,59.92836,30.311896,https://2gis.com/firm/70000001028310558
Bolshecoffee roasters,кофейня,Кофейни; Продажа кофе,"улица Марата, 22-24",1 этаж,191040,Владимирский,Центральный район,Санкт-Петербург,,Санкт-Петербург,Россия,Пн: 09:00-21:00; Вт: 09:00-21:00; Ср: 09:00-21:00; Чт: 09:00-21:00; Пт: 09:00-21:00; Сб: 09:00-21:00; Вс: 09:00-21:00,+03:00,4.7,85,89117814502,,,,,http://bolshecoffee.ru,,,https://vk.com/morecoffee,,,,,,,,,59.927975,30.353541,https://2gis.com/firm/70000001034289937
Secret Garden,"ресторан с гастрономической кухней, десертами собственного производства и авторскими напитками",Кофейни; Кафе-кондитерские; Кондитерские изделия; Мороженое,"Каменноостровский проспект, 42",1 этаж,197022,Аптекарский остров,Петроградский район,Санкт-Петербург,,Санкт-Петербург,Россия,Пн: 11:00-23:00; Вт: 11:00-23:00; Ср: 11:00-23:00; Чт: 11:00-23:00; Пт: 11:00-23:00; Сб: 11:00-23:00; Вс: 11:00-23:00,+03:00,3.7,514,,,,,,,,,,https://wa.me/79046001383,,,,,,,,59.96649,30.309393,https://2gis.com/firm/70000001039694843
Skuratov coffee,кофейня,Кофейни; Продажа кофе,"Восстания, 35",1 этаж,191014,Смольнинское,Центральный район,Санкт-Петербург,,Санкт-Петербург,Россия,Пн: 06:55-23:05; Вт: 06:55-23:05; Ср: 06:55-23:05; Чт: 06:55-23:05; Пт: 06:55-23:05; Сб: 06:55-23:05; Вс: 06:55-23:05,+03:00,4.4,105,89215897842,,,,,http://skuratovcoffee.ru,,https://twitter.com/skuratovcoffee,https://vk.com/skuratovcoffee,,,,,,https://t.me/skuratovcoffee,,https://youtube.com/channel/UCPwTlxfJslgT5OwKKnMRDrA,59.939112,30.360695,https://2gis.com/firm/70000001056051357
Кофе на кухне,кофейня,Кофейни; Продажа кофе; Продажа чая; Кондитерские изделия,"набережная реки Фонтанки, 17",1 этаж,191023,Дворцовый,Центральный район,Санкт-Петербург,,Санкт-Петербург,Россия,Пн: 08:30-22:00; Вт: 08:30-22:00; Ср: 08:30-22:00; Чт: 08:30-22:00; Пт: 08:30-22:00; Сб: 10:00-23:00; Вс: 10:00-23:00,+03:00,4.4,255,89819547483,,,,,http://bolshecoffee.ru,,,https://vk.com/morecoffee,,,,,,,,,59.93598,30.343189,https://2gis.com/firm/5348553838544249
Бурлящий котёл,кофейня,Кофейни; Сувениры,"Гагаринская, 10-12 лит Э",1 этаж,191187,Литейный,Центральный район,Санкт-Петербург,,Санкт-Петербург,Россия,Пн: 12:00-22:00; Вт: 12:00-22:00; Ср: 12:00-22:00; Чт: 12:00-22:00; Пт: 12:00-22:00; Сб: 12:00-23:00; Вс: 12:00-22:00,+03:00,3.9,151,89623469836,,,,,,,,https://vk.com/kotelnagagarinskoy,,,,,,,,,59.946245,30.342747,https://2gis.com/firm/70000001052171579
NowaDays,кей-поп кафе,Кофейни; Кондитерские изделия; Аниме / косплей товары,"набережная реки Фонтанки, 71",1 этаж,191023,Муниципальный округ №78,Центральный район,Санкт-Петербург,,Санкт-Петербург,Россия,Пн: 12:00-21:00; Вт: 12:00-21:00; Ср: 12:00-21:00; Чт: 12:00-21:00; Пт: 12:00-22:00; Сб: 12:00-22:00; Вс: 12:00-21:00,+03:00,4.2,127,89112416956,,,,,,,,https://vk.com/kpopcafenowadays,https://wa.me/79112416956,,,,,https://t.me/kpopcafenowadays,,,59.926687,30.329236,https://2gis.com/firm/70000001047196422
Skuratov coffee,кофейня,Кофейни; Продажа кофе; Кондитерские изделия,"Большой проспект В.О., 83",1 этаж,199106,Гавань,Василеостровский район,Санкт-Петербург,,Санкт-Петербург,Россия,Пн: 06:55-23:05; Вт: 06:55-23:05; Ср: 06:55-23:05; Чт: 06:55-23:05; Пт: 06:55-23:05; Сб: 06:55-23:05; Вс: 06:55-23:05,+03:00,4.6,37,89211857677,,,,,http://skuratovcoffee.ru,,https://twitter.com/skuratovcoffee,https://vk.com/skuratovcoffee,,,,,,https://t.me/skuratovcoffee,,https://youtube.com/channel/UCPwTlxfJslgT5OwKKnMRDrA,59.933223,30.253194,https://2gis.com/firm/70000001064057304
Булочные Ф. Вольчека,пекарня,Кондитерские изделия; Кофейни; Мороженое; Пекарни,"Каменноостровский проспект, 50",1 этаж,197022,Чкаловское,Петроградский район,Санкт-Петербург,,Санкт-Петербург,Россия,Пн: 08:00-22:00; Вт: 08:00-22:00; Ср: 08:00-22:00; Чт: 08:00-22:00; Пт: 08:00-22:00; Сб: 08:00-22:00; Вс: 08:00-22:00,+03:00,4.5,19,88124072631 (единый номер: пн-пт 9:00-18:00),,,,,http://fvolchek.ru,,,https://vk.com/f.volchek,,,,,,https://t.me/mariya_fvolchek,,,59.970824,30.306597,https://2gis.com/firm/70000001060378518
Север-Метрополь,кафе-кондитерская,Кафе-кондитерские; Кофейни; Кондитерские изделия,"Невский проспект, 44",цокольный этаж,191011,Дворцовый,Центральный район,Санкт-Петербург,,Санкт-Петербург,Россия,Пн: 08:00-23:00; Вт: 08:00-23:00; Ср: 08:00-23:00; Чт: 08:00-23:00; Пт: 08:00-23:00; Сб: 08:00-23:00; Вс: 08:00-23:00,+03:00,3.0,169,88125712589,,,,,http://sever-metropol.ru,,,https://vk.com/sever.metropol,,,,,,https://t.me/severmetropol,,,59.934881,30.333138,https://2gis.com/firm/5348552839047527
Большекофе!,кофейня,Кофейни; Продажа кофе,"Александровский парк, 3г",1 этаж,197046,Кронверкское,Петроградский район,Санкт-Петербург,,Санкт-Петербург,Россия,Пн: 09:00-22:00; Вт: 09:00-22:00; Ср: 09:00-22:00; Чт: 09:00-22:00; Пт: 09:00-22:00; Сб: 10:00-22:00; Вс: 10:00-22:00,+03:00,4.3,245,89111706028,,,,,http://bolshecoffee.ru,,,https://vk.com/morecoffee,,,,,,,,,59.954552,30.320638,https://2gis.com/firm/5348552841786302
Буше,пекарня-кондитерская,Кондитерские изделия; Пекарни; Доставка готовых блюд; Кофейни,"Средний проспект В.О., 33",1 этаж,199004,Васильевский,Василеостровский район,Санкт-Петербург,,Санкт-Петербург,Россия,Пн: 08:30-22:00; Вт: 08:30-22:00; Ср: 08:30-22:00; Чт: 08:30-22:00; Пт: 08:30-22:00; Сб: 08:30-22:00; Вс: 08:30-22:00,+03:00,4.3,120,88126405151 (доп.2391),,,,,http://bushe.ru,http://shop.bushe.ru,,https://vk.com/bushe.bakery,,,,,,https://t.me/bushe_delivery_bot,,,59.943019,30.277623,https://2gis.com/firm/5348552841407788
Surf Coffee,кофейня,Кофейни,"Рубинштейна, 9/3",1 этаж,191002,Владимирский,Центральный район,Санкт-Петербург,,Санкт-Петербург,Россия,Пн: 09:00-22:00; Вт: 09:00-22:00; Ср: 09:00-22:00; Чт: 09:00-22:00; Пт: 09:00-22:00; Сб: 09:00-22:00; Вс: 09:00-22:00,+03:00,4.0,57,89910469709,,,,,http://www.surfcoffee.ru,,,https://vk.com/surfcoffee,,,,,,,,,59.930351,30.344544,https://2gis.com/firm/70000001042782480
Слой х Вспышка,кафе-пекарня,Кафе-кондитерские; Кондитерские изделия; Кофейни; Доставка готовых блюд,"Потёмкинская улица, 13/48",1 этаж,191123,Смольнинское,Центральный район,Санкт-Петербург,,Санкт-Петербург,Россия,Пн: 08:00-21:00; Вт: 08:00-21:00; Ср: 08:00-21:00; Чт: 08:00-21:00; Пт: 08:00-21:00; Сб: 08:00-21:00; Вс: 08:00-21:00,+03:00,4.4,94,89921942426,,,,,http://sloy-vspyshka.ru,,,,,,,,,https://t.me/sloy_bakery,,,59.94397,30.367243,https://2gis.com/firm/70000001063844470
Verlé,кофейня,Кофейни; Продажа кофе,"Каменноостровский проспект, 25/2",1 этаж,197101,Аптекарский остров,Петроградский район,Санкт-Петербург,,Санкт-Петербург,Россия,Пн: 11:00-21:00; Вт: 11:00-21:00; Ср: 11:00-21:00; Чт: 11:00-21:00; Пт: 11:00-21:00; Сб: 11:00-21:00; Вс: 11:00-21:00,+03:00,3.3,146,,,,,,http://verleshop.com,,,,,,,,,https://t.me/verlesuppot,,,59.963435,30.314647,https://2gis.com/firm/70000001026148945
Best Friends Forever,бистро,Кафе; Алкогольные напитки; Безалкогольные напитки; Кофейни,"набережная реки Мойки, 71",1 этаж,191186,Муниципальный округ №78,Центральный район,Санкт-Петербург,,Санкт-Петербург,Россия,Пн: 10:00-23:00; Вт: 10:00-23:00; Ср: 10:00-23:00; Чт: 10:00-23:00; Пт: 10:00-23:00; Сб: 10:00-23:00; Вс: 10:00-23:00,+03:00,4.7,63,89810081024,,,,,,,,https://vk.com/bff_spb,https://wa.me/79810081024,,,,,https://t.me/bff_bistro,,,59.933337,30.315303,https://2gis.com/firm/70000001062994556
All in,кофейня и магазин кей-поп товаров,Кофейни; Аниме / косплей товары,"Средняя Подьяческая, 16",1 этаж,190068,Адмиралтейский,Адмиралтейский район,Санкт-Петербург,,Санкт-Петербург,Россия,Пн: 07:30-22:00; Вт: 07:30-22:00; Ср: 07:30-22:00; Чт: 07:30-22:00; Пт: 07:30-22:00; Сб: 12:00-22:00; Вс: 12:00-22:00,+03:00,4.8,74,89045513891,,,,,http://taplink.cc/allin.spb,,https://twitter.com/allin_spb,https://vk.com/allinspb23,https://wa.me/79999986638,https://wa.me/79045513891,,,,https://t.me/allinspb143,,https://youtube.com/@all-in-spb,59.924552,30.304155,https://2gis.com/firm/70000001059247399
Surf Coffee,кофейня,Кофейни; Доставка готовых блюд,"набережная Адмиралтейского канала, 2 лит Т",1 этаж,190121,Адмиралтейский,Адмиралтейский район,Санкт-Петербург,,Санкт-Петербург,Россия,Пн: 09:00-22:00; Вт: 09:00-22:00; Ср: 09:00-22:00; Чт: 09:00-22:00; Пт: 09:00-22:00; Сб: 09:00-22:00; Вс: 09:00-22:00,+03:00,4.1,75,89313551042,,,,,http://www.surfcoffee.ru,,,https://vk.com/surfcoffee,,,,,,,,,59.929609,30.288119,https://2gis.com/firm/70000001028986901
Avgvst,магазин-кофейня,Ювелирные изделия; Кофейни; Украшения для пирсинга; Тату-салоны; Услуги пирсинга,"Рубинштейна, 16",1 этаж,191025,Владимирский,Центральный район,Санкт-Петербург,,Санкт-Петербург,Россия,Пн: 11:00-21:00; Вт: 10:00-21:00; Ср: 10:00-21:00; Чт: 10:00-21:00; Пт: 10:00-21:00; Сб: 10:00-21:00; Вс: 10:00-21:00,+03:00,4.5,29,88005554286 (доп.4),,,,,http://jewelry-in-august.com,,,,https://wa.me/79819557128,,,,,https://t.me/avgvsthelpbot,,,59.930823,30.345199,https://2gis.com/firm/70000001045730827
Tapiera,чайная,Кофейни,"6-я линия В.О., 25",цокольный этаж,199004,Муниципальный округ №7,Василеостровский район,Санкт-Петербург,,Санкт-Петербург,Россия,Пн: 10:00-22:00; Вт: 10:00-22:00; Ср: 10:00-22:00; Чт: 10:00-22:00; Пт: 10:00-22:00; Сб: 11:00-22:00; Вс: 11:00-22:00 (25 декабря 2023 года чайные в СПб работают с 10:00-17:00. ),+03:00,4.3,46,89112718756,,,,,http://tapiera.com,,,https://vk.com/tapieratea,,,,,,,,https://youtube.com/channel/UCAHCvt04TEg3e5aC9zyALpw,59.942191,30.279963,https://2gis.com/firm/70000001066635809
Addict,кофейня,Кофейни; Продажа кофе,"Малый проспект П.С., 82",1 этаж,197136,Аптекарский остров,Петроградский район,Санкт-Петербург,,Санкт-Петербург,Россия,Пн: 08:00-20:00; Вт: 08:00-20:00; Ср: 08:00-20:00; Чт: 08:00-20:00; Пт: 08:00-20:00; Сб: 08:00-20:00; Вс: 08:00-20:00,+03:00,4.2,111,89111113700,,,,,,,,https://vk.com/addictcafe,https://wa.me/79111113700,,,,,https://t.me/addictcafe,,,59.965362,30.304475,https://2gis.com/firm/70000001040076624
Будем знакомы,кофейня,Кофейни; Хлебобулочные изделия; Кондитерские изделия,"Малый проспект П.С., 60",1 этаж,197136,Петровский,Петроградский район,Санкт-Петербург,,Санкт-Петербург,Россия,Пн: 09:00-21:00; Вт: 09:00-21:00; Ср: 09:00-21:00; Чт: 09:00-21:00; Пт: 09:00-21:00; Сб: 10:00-21:00; Вс: 10:00-21:00,+03:00,4.6,71,89956075842,,,,,,,,,,,,,,https://t.me/budemznakomycoffee,https://t.me/+79956075842,,59.962196,30.299681,https://2gis.com/firm/70000001046431047
Castella shop,пекарня,Пекарни; Кофейни; Доставка готовых блюд,"7-я линия В.О., 44",1 этаж,199004,Муниципальный округ №7,Василеостровский район,Санкт-Петербург,,Санкт-Петербург,Россия,Пн: 08:00-20:00; Вт: 08:00-20:00; Ср: 08:00-20:00; Чт: 08:00-20:00; Пт: 08:00-20:00; Сб: 08:00-20:00; Вс: 09:00-20:00,+03:00,3.9,86,89215505162,,,,,http://castellashop.ru,,,https://vk.com/castellashop,https://wa.me/79215505162,,,,,,,,59.942352,30.279219,https://2gis.com/firm/70000001043538973
Surf Coffee,кофейня,Кофейни; Продажа кофе,"Средний проспект В.О., 27",1 этаж,199004,Васильевский,Василеостровский район,Санкт-Петербург,,Санкт-Петербург,Россия,Пн: 08:00-21:00; Вт: 08:00-21:00; Ср: 08:00-21:00; Чт: 08:00-21:00; Пт: 08:00-21:00; Сб: 10:00-21:00; Вс: 10:00-21:00,+03:00,4.5,45,89516700760,,,,,http://www.surfcoffee.ru,,,https://vk.com/surfcoffee,,,,,,,,,59.943465,30.279148,https://2gis.com/firm/70000001052548442
Carpaccio Coffee,,Кофейни; Продажа кофе; Кафе,"Кронверкская, 21",1 этаж,197101,Кронверкское,Петроградский район,Санкт-Петербург,,Санкт-Петербург,Россия,Пн: 09:00-20:00; Вт: 09:00-20:00; Ср: 09:00-20:00; Чт: 09:00-20:00; Пт: 09:00-20:00; Сб: 09:00-20:00; Вс: 09:00-20:00,+03:00,3.8,27,89990226499,,,,,,,,,https://wa.me/79990226499,,,,,https://t.me/+79990226499,,,59.961144,30.312003,https://2gis.com/firm/70000001063442430
Plump,кофейня,Кофейни,"Рентгена, 25",1 этаж,197101,Посадский,Петроградский район,Санкт-Петербург,,Санкт-Петербург,Россия,Пн: 08:30-19:30; Вт: 08:30-19:30; Ср: 08:30-19:30; Чт: 08:30-19:30; Пт: 08:30-19:30; Сб: 09:00-20:00; Вс: 09:00-20:00,+03:00,3.9,28,89211851001,,,,,,,,https://vk.com/public212017818,,,,,,,,,59.965905,30.329645,https://2gis.com/firm/70000001063137027
Amazing Cacao,шоколадная фабрика,Кондитерские изделия; Кофейни,"Загородный проспект, 5",1 этаж,191002,Владимирский,Центральный район,Санкт-Петербург,,Санкт-Петербург,Россия,Пн: 08:00-22:00; Вт: 08:00-22:00; Ср: 08:00-22:00; Чт: 08:00-22:00; Пт: 08:00-22:00; Сб: 09:00-22:00; Вс: 09:00-22:00,+03:00,4.7,37,89119103329,89219120095,89219120022,,,http://www.amazingchoco.com,,,https://vk.com/Amazingcacao,https://wa.me/79219120048,https://wa.me/79119103329,https://wa.me/79219120095,,,https://t.me/amazingcacao,,,59.927249,30.344823,https://2gis.com/firm/70000001059180263
Буше,пекарня-кондитерская,Пекарни; Кофейни; Кондитерские изделия,"Восстания, 10",1 этаж,191014,Литейный,Центральный район,Санкт-Петербург,,Санкт-Петербург,Россия,Пн: 08:00-22:00; Вт: 08:00-22:00; Ср: 08:00-22:00; Чт: 08:00-22:00; Пт: 08:00-22:00; Сб: 08:00-22:00; Вс: 08:00-22:00,+03:00,3.9,130,88126405151 (единая справочная: пн-чт 9:00-18:00; пт 9:00-17:00),,,,,http://bushe.ru,http://shop.bushe.ru,,https://vk.com/bushe.bakery,,,,,,https://t.me/bushe_delivery_bot,,,59.935683,30.359923,https://2gis.com/firm/5348552838545585
Peche bistot,кафе,Кафе; Кофейни,"Маяковского, 54-56",1 этаж,191014,Литейный,Центральный район,Санкт-Петербург,,Санкт-Петербург,Россия,Пн: 10:00-23:00; Вт: 10:00-23:00; Ср: 10:00-23:00; Чт: 10:00-23:00; Пт: 09:00-23:00; Сб: 09:00-23:00; Вс: 09:00-23:00,+03:00,4.7,71,89319564001,,,,,,,,,https://wa.me/79319564001,,,,,,,,59.943632,30.35527,https://2gis.com/firm/70000001060842604
Забыли сахар,кафе,Кофейни; Кафе-кондитерские,"Невский проспект, 114-116",4 этаж,191025,Литейный,Центральный район,Санкт-Петербург,,Санкт-Петербург,Россия,Пн: 10:00-23:00; Вт: 10:00-23:00; Ср: 10:00-23:00; Чт: 10:00-23:00; Пт: 10:00-23:00; Сб: 10:00-23:00; Вс: 10:00-23:00,+03:00,4.4,79,88123312424,,,,,http://забылисахар.рф,,,https://vk.com/zabylisahar,,,,,,https://t.me/zabylisahar,,,59.931846,30.359107,https://2gis.com/firm/70000001031971054
Буше,пекарня-кондитерская,Пекарни; Кофейни; Кондитерские изделия,"улица Льва Толстого, 1/3",1 этаж,197022,Аптекарский остров,Петроградский район,Санкт-Петербург,,Санкт-Петербург,Россия,Пн: 08:00-22:00; Вт: 08:00-22:00; Ср: 08:00-22:00; Чт: 08:00-22:00; Пт: 08:00-22:00; Сб: 08:00-22:00; Вс: 08:00-22:00,+03:00,3.5,96,88126405151 (единая справочная: пн-чт 9:00-18:00; пт 9:00-17:00),,,,,http://bushe.ru,http://shop.bushe.ru,,https://vk.com/bushe.bakery,,,,,,https://t.me/bushe_delivery_bot,,,59.965416,30.312694,https://2gis.com/firm/70000001022351855
Шоколадница,кофейня,Кофейни; Доставка готовых блюд; Кафе,"набережная канала Грибоедова, 18-20",30Н помещение; 1 этаж,191011,Муниципальный округ №78,Центральный район,Санкт-Петербург,,Санкт-Петербург,Россия,Пн: 08:00-23:00; Вт: 08:00-23:00; Ср: 08:00-23:00; Чт: 08:00-23:00; Пт: 08:00-23:00; Сб: 08:00-23:00; Вс: 08:00-23:00,+03:00,3.6,413,89111238540,,,,,http://shoko.ru,http://regions.shoko.ru,,https://vk.com/shokoru,,,,,,,,,59.934644,30.326536,https://2gis.com/firm/5348552839809409
Pitcher,кофейня,Кофейни; Продажа кофе,"улица Марата, 2",1 этаж,191025,Владимирский,Центральный район,Санкт-Петербург,,Санкт-Петербург,Россия,Пн: 09:00-22:00; Вт: 09:00-22:00; Ср: 09:00-22:00; Чт: 09:00-22:00; Пт: 09:00-22:00; Сб: 09:00-22:00; Вс: 09:00-22:00,+03:00,4.7,147,89313393043,,,,,http://pitcherbar.ru,,,,,,,,,https://t.me/pitcherbar,,,59.931412,30.355757,https://2gis.com/firm/70000001020164789
Пури Гули,авторская пекарня,Пекарни; Кафе-кондитерские; Кофейни,"Невский проспект, 32-34",1 этаж,191011,Дворцовый,Центральный район,Санкт-Петербург,,Санкт-Петербург,Россия,Пн: 09:58-20:58; Вт: 09:58-20:58; Ср: 09:58-20:58; Чт: 09:58-20:58; Пт: 09:58-20:58; Сб: 09:58-20:58; Вс: 09:58-20:58,+03:00,4.6,91,89110838003,89030944912,89111288678,mari-274@yandex.ru,order@puri-guli.ru,http://puri-guli.ru,http://t.me/purigulispb,,https://vk.com/puriguli,https://wa.me/79052578778,https://wa.me/79030944912,,,,,,,59.936317,30.329746,https://2gis.com/firm/70000001062598404
Буше,пекарня-кондитерская,Кондитерские изделия; Пекарни; Доставка готовых блюд; Кофейни,"Разъезжая, 13",1 этаж,191119,Владимирский,Центральный район,Санкт-Петербург,,Санкт-Петербург,Россия,Пн: 08:00-22:00; Вт: 08:00-22:00; Ср: 08:00-22:00; Чт: 08:00-22:00; Пт: 08:00-22:00; Сб: 08:00-22:00; Вс: 08:00-22:00,+03:00,3.5,73,88126405151 (единая справочная: пн-чт 9:00-18:00; пт 9:00-17:00),,,,,http://bushe.ru,http://shop.bushe.ru,,https://vk.com/bushe.bakery,,,,,,https://t.me/bushe_delivery_bot,,,59.924693,30.34563,https://2gis.com/firm/5348552838545584
Шоколадница,кофейня,Кофейни; Доставка готовых блюд; Кафе; Продажа кофе,"Лиговский проспект, 30",2 этаж,191040,Лиговка-Ямская,Центральный район,Санкт-Петербург,,Санкт-Петербург,Россия,Пн: 08:00-23:00; Вт: 08:00-23:00; Ср: 08:00-23:00; Чт: 08:00-23:00; Пт: 08:00-23:00; Сб: 08:00-23:00; Вс: 08:00-23:00,+03:00,4.3,329,89312292487,,,,,http://shoko.ru,http://regions.shoko.ru,,https://vk.com/shokoru,,,,,,,,,59.928041,30.360552,https://2gis.com/firm/5348552839092761
Civil,кофейня,Кофейни,"Большой проспект П.С., 71а",1 этаж,197101,Кронверкское,Петроградский район,Санкт-Петербург,,Санкт-Петербург,Россия,Пн: 09:00-21:00; Вт: 09:00-21:00; Ср: 09:00-21:00; Чт: 09:00-21:00; Пт: 09:00-22:00; Сб: 09:00-22:00; Вс: 09:00-21:00,+03:00,4.2,128,89992362535,88123177111 (единая справочная: круглосуточно),,,,,,,https://vk.com/civil.coffeebar,,,,,,https://t.me/civilcoffeebar,,,59.964769,30.310615,https://2gis.com/firm/70000001034051447
Coffee room,кофейня,Кофейни; Кафе; Доставка готовых блюд,"Гороховая, 11",1 этаж,190031,Адмиралтейский,Адмиралтейский район,Санкт-Петербург,,Санкт-Петербург,Россия,Пн: 09:00-21:00; Вт: 09:00-21:00; Ср: 09:00-21:00; Чт: 09:00-21:00; Пт: 09:00-22:00; Сб: 09:00-22:00; Вс: 09:00-21:00,+03:00,3.7,136,89819842000,,,,,http://coffeeroomspb.com,,,https://vk.com/coffeeroomspb,,,,,,https://t.me/coffeeroomspb,,,59.934632,30.312609,https://2gis.com/firm/70000001021862833
Щегол,кофейня,Кофейни; Кондитерские изделия; Продажа кофе,"Радищева, 38",1 этаж,191123,Смольнинское,Центральный район,Санкт-Петербург,,Санкт-Петербург,Россия,Пн: 09:00-20:00; Вт: 09:00-20:00; Ср: 09:00-20:00; Чт: 09:00-20:00; Пт: 09:00-20:00; Сб: 10:00-20:00; Вс: 10:00-20:00,+03:00,4.4,75,,,,,,,,,https://vk.com/schegolcoffee,,,,,,https://t.me/schegolcoffee,,,59.941949,30.363434,https://2gis.com/firm/70000001032493386
Mad espresso team,кофейня,Кофейни,"2-я Советская улица, 27",1 этаж,191024,Смольнинское,Центральный район,Санкт-Петербург,,Санкт-Петербург,Россия,Пн: 08:00-20:00; Вт: 08:00-22:00; Ср: 08:00-22:00; Чт: 08:00-22:00; Пт: 08:00-22:00; Сб: 10:00-22:00; Вс: 10:00-22:00,+03:00,3.9,109,89627006261,,,,,http://met.coffee/adresa-kofeen-met,,,,,,,,,,,,59.930179,30.372462,https://2gis.com/firm/70000001023093033
Tiger Tea,кафе,Кофейни,"Невский проспект, 68а",1 этаж,190000,Литейный,Центральный район,Санкт-Петербург,,Санкт-Петербург,Россия,Пн: 10:00-23:00; Вт: 10:00-23:00; Ср: 10:00-23:00; Чт: 10:00-23:00; Пт: 10:00-23:00; Сб: 10:00-23:00; Вс: 10:00-23:00,+03:00,4.6,219,89674333301,,,,,,,,https://vk.com/tigertea_spb,,,,,,,,,59.933899,30.344452,https://2gis.com/firm/70000001065973524
Orangery,кафе,Кофейни,"Шпалерная, 43",2 этаж,191123,Смольнинское,Центральный район,Санкт-Петербург,,Санкт-Петербург,Россия,Пн: 11:00-21:00; Вт: 11:00-21:00; Ср: 11:00-21:00; Чт: 11:00-21:00; Пт: 11:00-21:00; Сб: 11:00-21:00; Вс: 11:00-21:00,+03:00,3.8,72,,,,,,,,,,,,,,,,,,59.948623,30.368445,https://2gis.com/firm/70000001025723586
Stars coffee,кофейня,Кофейни,"Невский проспект, 25",1 этаж,191186,Муниципальный округ №78,Центральный район,Санкт-Петербург,,Санкт-Петербург,Россия,Пн: 08:00-23:00; Вт: 08:00-23:00; Ср: 08:00-23:00; Чт: 08:00-23:00; Пт: 08:00-23:00; Сб: 08:00-23:00; Вс: 08:00-23:00,+03:00,3.0,66,,,,,,http://stars-coffee.ru,,,https://vk.com/starscoffee_official,,,,,,,,,59.935217,30.323606,https://2gis.com/firm/70000001041894856
Цех85,пекарня-кондитерская,Кондитерские изделия; Пекарни; Кафе-кондитерские; Доставка готовых блюд; Кофейни,"Невский проспект, 122",1 этаж,191036,Смольнинское,Центральный район,Санкт-Петербург,,Санкт-Петербург,Россия,Пн: 08:00-22:00; Вт: 08:00-22:00; Ср: 08:00-22:00; Чт: 08:00-22:00; Пт: 08:00-22:00; Сб: 08:00-22:00; Вс: 08:00-22:00,+03:00,4.0,66,88005008985 (единый номер: пн-вс 8:00-22:00),,,info@tseh85.ru,,http://tseh85.ru,,,https://vk.com/tseh85,,,,,,https://t.me/tseh85bakery,,,59.930886,30.364372,https://2gis.com/firm/70000001038995038
Люди кофе,экспресс-кофейня,Кофейни,"Басков переулок, 1/3",1 этаж,191014,Литейный,Центральный район,Санкт-Петербург,,Санкт-Петербург,Россия,Пн: 09:00-21:00; Вт: 09:00-21:00; Ср: 09:00-21:00; Чт: 09:00-21:00; Пт: 09:00-21:00; Сб: 10:00-21:00; Вс: 10:00-21:00,+03:00,4.1,44,,,,,,,,,,,,,,,,,,59.939523,30.350395,https://2gis.com/firm/70000001059715999
Абрикосовъ,кофейня,Доставка готовых блюд; Кофейни; Кафе-кондитерские; Кондитерские изделия,"Невский проспект, 42",1 этаж,191011,Дворцовый,Центральный район,Санкт-Петербург,,Санкт-Петербург,Россия,Пн: 09:00-23:00; Вт: 09:00-23:00; Ср: 09:00-23:00; Чт: 09:00-23:00; Пт: 09:00-23:00; Сб: 09:00-23:00; Вс: 09:00-23:00,+03:00,3.1,98,88123122457,,,,,http://abrikosov-spb.com,,,https://vk.com/abrikosov_spb,,,,,,,,,59.934893,30.331844,https://2gis.com/firm/5348552838492558
Civil,кофейня,Кофейни,"8-я Советская улица, 4а",1 этаж,191036,Смольнинское,Центральный район,Санкт-Петербург,,Санкт-Петербург,Россия,Пн: 09:00-21:00; Вт: 09:00-21:00; Ср: 09:00-21:00; Чт: 09:00-21:00; Пт: 09:00-22:00; Сб: 09:00-22:00; Вс: 09:00-21:00,+03:00,3.8,163,89811224815,88123177111 (единая справочная: круглосуточно),,,,,,,https://vk.com/civil.coffeebar,,,,,,https://t.me/civilcoffeebar,,,59.937966,30.370519,https://2gis.com/firm/70000001028081148
Mad espresso team,кофейня,Кофейни,"проспект Римского-Корсакова, 3",1 этаж,190068,Сенной,Адмиралтейский район,Санкт-Петербург,,Санкт-Петербург,Россия,Пн: 08:00-20:00; Вт: 08:00-22:00; Ср: 08:00-22:00; Чт: 08:00-22:00; Пт: 08:00-22:00; Сб: 10:00-22:00; Вс: 10:00-22:00,+03:00,4.0,67,89657552958,,,,,http://met.coffee/adresa-kofeen-met,,,,,,,,,,,,59.924467,30.310849,https://2gis.com/firm/70000001047547005
Парадная,кофейня,Кофейни,"набережная канала Грибоедова, 43",1 этаж,191186,Муниципальный округ №78,Центральный район,Санкт-Петербург,,Санкт-Петербург,Россия,Пн: 09:00-21:00; Вт: 09:00-21:00; Ср: 09:00-21:00; Чт: 09:00-21:00; Пт: 09:00-21:00; Сб: 09:00-21:00; Вс: 09:00-21:00,+03:00,5.0,7,89933366106,,,,,,,,,,,,,,,,,59.931333,30.320403,https://2gis.com/firm/70000001077880573
Skuratov coffee,кофейня,Кофейни; Продажа кофе,"Малая Посадская, 4а",1 этаж,197046,Посадский,Петроградский район,Санкт-Петербург,,Санкт-Петербург,Россия,Пн: 06:55-23:05; Вт: 06:55-23:05; Ср: 06:55-23:05; Чт: 06:55-23:05; Пт: 06:55-23:05; Сб: 06:55-23:05; Вс: 06:55-23:05,+03:00,4.7,72,89992064989,,,,,http://skuratovcoffee.ru,,https://twitter.com/skuratovcoffee,https://vk.com/skuratovcoffee,,,,,,https://t.me/skuratovcoffee,,https://youtube.com/channel/UCPwTlxfJslgT5OwKKnMRDrA,59.958042,30.320379,https://2gis.com/firm/70000001040860018
Coffeeshop company,кофейня,Кофейни,"Невский проспект, 24",1 этаж,191186,Дворцовый,Центральный район,Санкт-Петербург,,Санкт-Петербург,Россия,Пн: 00:00-24:00; Вт: 00:00-24:00; Ср: 00:00-24:00; Чт: 00:00-24:00; Пт: 00:00-24:00; Сб: 00:00-24:00; Вс: 00:00-24:00,+03:00,4.3,678,89119986391,,,,,http://www.coffeeshopcompany.ru,,,https://vk.com/csc,,,,,,,,,59.935793,30.32427,https://2gis.com/firm/5348552839178190
Щегол,кофейня,Кофейни; Кондитерские изделия; Продажа кофе,"Невский проспект, 46",2 этаж; магазин Буквоед,191011,Дворцовый,Центральный район,Санкт-Петербург,,Санкт-Петербург,Россия,Пн: 10:00-22:00; Вт: 10:00-22:00; Ср: 10:00-22:00; Чт: 10:00-22:00; Пт: 10:00-22:00; Сб: 10:00-22:00; Вс: 10:00-22:00,+03:00,4.9,34,,,,,,,,,https://vk.com/schegolcoffee,,,,,,https://t.me/schegolcoffee,,,59.934674,30.333662,https://2gis.com/firm/70000001063218096
Свитер,кофейня,Кофейни,"Бармалеева, 33",1 этаж,197136,Аптекарский остров,Петроградский район,Санкт-Петербург,,Санкт-Петербург,Россия,Пн: 09:00-20:00; Вт: 09:00-20:00; Ср: 09:00-20:00; Чт: 09:00-20:00; Пт: 09:00-20:00; Сб: 10:00-21:00; Вс: 10:00-21:00,+03:00,4.7,68,89112248706,,,,,,,,,https://wa.me/79112248706,,,,,,,,59.966329,30.301238,https://2gis.com/firm/70000001031608854
Opetit,французская кофейня,Кофейни; Хлебобулочные изделия; Кондитерские изделия,"Блохина, 23","1, 2 этаж",197198,Введенский,Петроградский район,Санкт-Петербург,,Санкт-Петербург,Россия,Пн: 09:00-21:00; Вт: 09:00-21:00; Ср: 09:00-21:00; Чт: 09:00-21:00; Пт: 09:00-21:00; Сб: 09:00-21:00; Вс: 09:00-21:00,+03:00,4.2,146,,,,,,http://o-petit.ru,,,https://vk.com/opetit,,,,,,,,,59.952244,30.297357,https://2gis.com/firm/70000001025963453
Colors,кофейня,Кофейни; Продажа кофе,"Ленина, 27",1 этаж,197136,Аптекарский остров,Петроградский район,Санкт-Петербург,,Санкт-Петербург,Россия,Пн: 09:00-21:00; Вт: 09:00-21:00; Ср: 09:00-21:00; Чт: 09:00-21:00; Пт: 09:00-21:00; Сб: 10:00-21:00; Вс: 10:00-21:00,+03:00,4.4,64,,,,,,,,,,,,,,,,,,59.963462,30.302259,https://2gis.com/firm/70000001055371153
Uslada,кофейня,Кофейни,"Мира, 37",31-Н помещение; 1 этаж,197101,Посадский,Петроградский район,Санкт-Петербург,,Санкт-Петербург,Россия,Пн: 08:30-21:30; Вт: 08:30-21:30; Ср: 08:30-21:30; Чт: 08:30-21:30; Пт: 08:30-21:30; Сб: 09:30-21:30; Вс: 09:30-21:30,+03:00,5.0,8,89118340505,,,,,,,,,https://wa.me/79118340505,,,,,https://t.me/violettavizitiu,,,59.961675,30.327978,https://2gis.com/firm/70000001076563630
A may,китайская кофейня,Кофейни,"набережная реки Фонтанки, 50",1 этаж,191002,Владимирский,Центральный район,Санкт-Петербург,,Санкт-Петербург,Россия,Пн: 10:00-22:00; Вт: 10:00-22:00; Ср: 10:00-22:00; Чт: 10:00-22:00; Пт: 10:00-22:00; Сб: 10:00-22:00; Вс: 10:00-22:00,+03:00,4.5,51,89062270905,,,,,,,,,https://wa.me/79062270905,,,,,,,,59.93074,30.341841,https://2gis.com/firm/70000001053687101
Вираж,кофейня,Кофейни,"улица Марата, 56-58 лит Б",1 этаж,191119,Владимирский,Центральный район,Санкт-Петербург,,Санкт-Петербург,Россия,Пн: 12:00-23:00; Вт: 12:00-23:00; Ср: 12:00-23:00; Чт: 12:00-23:00; Пт: 12:00-23:00; Сб: 12:00-23:00; Вс: 12:00-23:00,+03:00,4.5,9,,,,,,,,,,,,,,,,,,59.922028,30.349272,https://2gis.com/firm/70000001068849984
Британские Пекарни,кафе-кондитерская,Кофейни; Пекарни; Доставка готовых блюд; Кафе-кондитерские,"Невский проспект, 94",цокольный этаж,191025,Литейный,Центральный район,Санкт-Петербург,,Санкт-Петербург,Россия,Пн: 08:00-22:00; Вт: 08:00-22:00; Ср: 08:00-22:00; Чт: 08:00-22:00; Пт: 08:00-22:00; Сб: 09:00-22:00; Вс: 09:00-22:00,+03:00,3.8,115,88123132261 (интернет-магазин: пн-вс 9:00-22:00),,,,,http://british-bakery.ru,,,https://vk.com/club46155943,,,,,,https://t.me/britishbakery,,https://youtube.com/channel/UCvsFkwFZTetFu9ro8FJ34jw,59.932146,30.353587,https://2gis.com/firm/70000001031087048
Mntn coffee,кофейня,Кофейни; Продажа кофе,"Моисеенко, 27",1 этаж,191144,Смольнинское,Центральный район,Санкт-Петербург,,Санкт-Петербург,Россия,Пн: 08:00-21:00; Вт: 08:00-21:00; Ср: 08:00-21:00; Чт: 08:00-21:00; Пт: 08:00-21:00; Сб: 10:00-21:00; Вс: 10:00-21:00,+03:00,4.5,41,89522780848,,,,,http://t.me/mntncoffee,,,,,,,,,,,,59.937461,30.385079,https://2gis.com/firm/70000001059371165
Цех85,пекарня-кондитерская,Пекарни; Кондитерские изделия; Кофейни; Доставка готовых блюд; Кафе-кондитерские,"Лиговский проспект, 33-35",цокольный этаж,191036,Смольнинское,Центральный район,Санкт-Петербург,,Санкт-Петербург,Россия,Пн: 07:00-23:00; Вт: 07:00-23:00; Ср: 07:00-23:00; Чт: 07:00-23:00; Пт: 07:00-23:00; Сб: 08:00-23:00; Вс: 08:00-23:00,+03:00,3.3,12,88005008985 (единый номер: пн-вс 8:00-22:00),,,info@tseh85.ru,,http://tseh85.ru,,,https://vk.com/tseh85,,,,,,https://t.me/tseh85bakery,,,59.932669,30.361547,https://2gis.com/firm/70000001066548283
Море внутри тебя,кофейня,Кофейни,"улица Новгородская, 23",1 этаж,191124,Смольнинское,Центральный район,Санкт-Петербург,,Санкт-Петербург,Россия,Пн: 08:00-21:00; Вт: 08:00-21:00; Ср: 08:00-21:00; Чт: 08:00-21:00; Пт: 08:00-21:00; Сб: 10:00-21:00; Вс: 10:00-21:00,+03:00,4.9,26,89819892039,,,,,http://taplink.cc/more_insideyou,,,https://vk.com/moreinside_you,,,,,,,,,59.940701,30.390159,https://2gis.com/firm/70000001070152696
Британские Пекарни,кафе-кондитерская,Кофейни; Пекарни; Доставка готовых блюд; Кондитерские изделия; Кафе-кондитерские,"Восстания, 3-5",1 этаж,191036,Смольнинское,Центральный район,Санкт-Петербург,,Санкт-Петербург,Россия,Пн: 08:00-22:00; Вт: 08:00-22:00; Ср: 08:00-22:00; Чт: 08:00-22:00; Пт: 08:00-22:00; Сб: 09:00-22:00; Вс: 09:00-22:00,+03:00,4.0,74,88123132261 (интернет-магазин: пн-вс 9:00-22:00),,,,,http://british-bakery.ru,,,https://vk.com/club46155943,,,,,,https://t.me/britishbakery,,https://youtube.com/channel/UCvsFkwFZTetFu9ro8FJ34jw,59.932906,30.360295,https://2gis.com/firm/70000001023631988
Magic&coffee,кофейня,Кофейни; Кондитерские изделия; Бижутерия; Сувениры,"улица Большая Конюшенная, 9",1 этаж; вход в арку,191186,Дворцовый,Центральный район,Санкт-Петербург,,Санкт-Петербург,Россия,Пн: 11:00-22:00; Вт: 11:00-22:00; Ср: 11:00-22:00; Чт: 11:00-22:00; Пт: 11:00-22:00; Сб: 11:00-22:00; Вс: 11:00-22:00,+03:00,4.8,50,89522481665,,,,,http://www.mag-c.ru/,,,https://vk.com/magicandcoffee,https://wa.me/79522481665,https://wa.me/79006523681,,,,https://t.me/magiccoffee_spb,,,59.939936,30.323207,https://2gis.com/firm/70000001051306333
Британские Пекарни,кафе-кондитерская,Кофейни; Пекарни; Доставка готовых блюд; Кафе-кондитерские,"Новочеркасский проспект, 41",1 этаж,195112,Малая Охта,Красногвардейский район,Санкт-Петербург,,Санкт-Петербург,Россия,Пн: 08:00-22:00; Вт: 08:00-22:00; Ср: 08:00-22:00; Чт: 08:00-22:00; Пт: 08:00-22:00; Сб: 09:00-22:00; Вс: 09:00-22:00,+03:00,4.0,51,88123132261 (интернет-магазин: пн-вс 9:00-22:00),,,,,http://british-bakery.ru,,,https://vk.com/club46155943,,,,,,https://t.me/britishbakery,,https://youtube.com/channel/UCvsFkwFZTetFu9ro8FJ34jw,59.929391,30.410672,https://2gis.com/firm/70000001024048146
Cinnabon,кофейня-пекарня,Кофейни; Пекарни; Доставка готовых блюд; Кафе-кондитерские,"Брантовская дорога, 3",1 этаж,195027,Большая Охта,Красногвардейский район,Санкт-Петербург,,Санкт-Петербург,Россия,Пн: 10:00-22:00; Вт: 10:00-22:00; Ср: 10:00-22:00; Чт: 10:00-22:00; Пт: 10:00-22:00; Сб: 10:00-22:00; Вс: 10:00-22:00,+03:00,2.8,22,88123371831,,,,,http://cinnabonrussia.com,,,https://vk.com/cinnabon_rus,,,,,,,,https://youtube.com/user/cinnaboninc,59.940461,30.419076,https://2gis.com/firm/70000001044200577
Фаренгейт 451,книжный магазин,Книги; Кофейни; Продажа кофе,"Чайковского, 55",цокольный этаж,191123,Литейный,Центральный район,Санкт-Петербург,,Санкт-Петербург,Россия,Пн: 12:00-22:00; Вт: 12:00-22:00; Ср: 12:00-22:00; Чт: 12:00-22:00; Пт: 12:00-22:00; Сб: 12:00-22:00; Вс: 12:00-22:00,+03:00,4.5,15,89531408521,,,,,,,https://twitter.com/frngt,https://vk.com/frngt,https://wa.me/79531408521,,,,,https://t.me/frngt25,,,59.946222,30.3573,https://2gis.com/firm/70000001007551877
Hobz,кафе-пекарня,Пекарни; Кондитерские изделия; Кофейни; Кафе-кондитерские,"Итальянская, 19",1 этаж,191011,Дворцовый,Центральный район,Санкт-Петербург,,Санкт-Петербург,Россия,Пн: 09:00-22:00; Вт: 09:00-22:00; Ср: 09:00-22:00; Чт: 09:00-22:00; Пт: 09:00-22:00; Сб: 09:00-22:00; Вс: 09:00-22:00,+03:00,4.3,20,89313623339,,,,,,,,https://vk.com/hobzbakery,,,,,,https://t.me/bakeryhobz,,,59.936133,30.334796,https://2gis.com/firm/70000001067138761
Espresso bike,кофейня,Кофейни; Доставка готовых блюд,"Казанская, 7а лит А",цокольный этаж,191186,Муниципальный округ №78,Центральный район,Санкт-Петербург,,Санкт-Петербург,Россия,Пн: 09:00-21:00; Вт: 09:00-21:00; Ср: 09:00-21:00; Чт: 09:00-21:00; Пт: 09:00-21:00; Сб: 10:00-21:00; Вс: 10:00-21:00,+03:00,4.7,67,89627200707,,,,,http://espressobike.ru,,,,,,,,,,,,59.932395,30.32146,https://2gis.com/firm/70000001017435454
Буше,пекарня-кондитерская,Пекарни; Кондитерские изделия; Доставка готовых блюд; Кофейни; Кафе-кондитерские,"улица Комсомола, 16",1 этаж,195009,Финляндский,Калининский район,Санкт-Петербург,,Санкт-Петербург,Россия,Пн: 08:00-22:00; Вт: 08:00-22:00; Ср: 08:00-22:00; Чт: 08:00-22:00; Пт: 08:00-22:00; Сб: 09:00-22:00; Вс: 09:00-21:00 (кухня: пн-вс 08:00-19:30),+03:00,3.7,116,88126405151 (единая справочная: пн-чт 9:00-18:00; пт 9:00-17:00),,,,,http://bushe.ru,http://shop.bushe.ru,,https://vk.com/bushe.bakery,,,,,,https://t.me/bushe_delivery_bot,,,59.954785,30.357205,https://2gis.com/firm/70000001028646285
Kafema,магазин-кофейня,Продажа кофе; Кофейни; Продажа чая,"Разъезжая, 1",1-2 этаж,191002,Владимирский,Центральный район,Санкт-Петербург,,Санкт-Петербург,Россия,Пн: 09:00-20:00; Вт: 09:00-20:00; Ср: 09:00-20:00; Чт: 09:00-20:00; Пт: 09:00-20:00; Сб: 10:00-20:00; Вс: 10:00-20:00,+03:00,4.8,41,89117080868,,,,,http://kafema.ru,,,https://vk.com/club30095918,,,,,,,,,59.925842,30.34273,https://2gis.com/firm/70000001044139120
Перед прочтением сжечь,книжный магазин и кофейня,Книги; Сувениры; Кофейни; Канцелярские товары / Учебные принадлежности; Календари / Открытки,"Радищева, 17-19",1 этаж,191014,Смольнинское,Центральный район,Санкт-Петербург,,Санкт-Петербург,Россия,Пн: 10:00-22:00; Вт: 10:00-22:00; Ср: 10:00-22:00; Чт: 10:00-22:00; Пт: 10:00-22:00; Сб: 10:00-22:00; Вс: 10:00-22:00,+03:00,5.0,23,89313107403,,,,,,,,https://vk.com/peredp,https://wa.me/78129451143,https://wa.me/79313107403,,,,https://t.me/peredp,,,59.937906,30.363256,https://2gis.com/firm/70000001047054260
Коммуна кофе,кофейня,Кофейни,"Петропавловская, 6",,197022,Аптекарский остров,Петроградский район,Санкт-Петербург,,Санкт-Петербург,Россия,Пн: 09:00-21:00; Вт: 09:00-21:00; Ср: 09:00-21:00; Чт: 09:00-21:00; Пт: 09:00-21:00; Сб: 10:00-21:00; Вс: 10:00-21:00,+03:00,4.5,19,89500305372,,,,,,,,,,,,,,,,,59.966775,30.314697,https://2gis.com/firm/70000001075080386
Парадная,кофейня,Кофейни,"улица Кирочная, 7",1 этаж,191014,Литейный,Центральный район,Санкт-Петербург,,Санкт-Петербург,Россия,Пн: 09:00-21:00; Вт: 09:00-21:00; Ср: 09:00-21:00; Чт: 09:00-21:00; Пт: 09:00-21:00; Сб: 10:00-22:00; Вс: 10:00-22:00,+03:00,4.8,54,89933366106,,,,,,,,,,,,,,,,,59.943731,30.353556,https://2gis.com/firm/70000001038009064
Обычные люди,кофейня-бар,Кофейни,"Рыбацкая, 4",1 этаж,197198,Петровский,Петроградский район,Санкт-Петербург,,Санкт-Петербург,Россия,Пн: 09:00-21:00; Вт: 09:00-21:00; Ср: 09:00-21:00; Чт: 09:00-21:00; Пт: 09:00-21:00; Сб: 09:00-21:00; Вс: 09:00-21:00,+03:00,4.0,19,89811436717,,,,,http://bolshecoffee.ru,,,https://vk.com/morecoffee,,,,,,,,,59.958196,30.297583,https://2gis.com/firm/70000001031677225
Цех85,пекарня-кондитерская,Кондитерские изделия; Пекарни; Кафе-кондитерские; Доставка готовых блюд; Кофейни,"Сенная площадь, 4",1 этаж,190031,Сенной,Адмиралтейский район,Санкт-Петербург,,Санкт-Петербург,Россия,Пн: 07:00-23:00; Вт: 07:00-23:00; Ср: 07:00-23:00; Чт: 07:00-23:00; Пт: 07:00-23:00; Сб: 08:00-23:00; Вс: 08:00-23:00,+03:00,4.2,22,88005008985 (единый номер: пн-вс 8:00-22:00),,,info@tseh85.ru,,http://tseh85.ru,,,https://vk.com/tseh85,,,,,,https://t.me/tseh85bakery,,,59.92651,30.319021,https://2gis.com/firm/70000001072179642
Британские Пекарни,кафе-кондитерская,Кофейни; Кондитерские изделия; Доставка готовых блюд; Пекарни; Кафе-кондитерские,"Большой проспект П.С., 98",1 этаж,197022,Аптекарский остров,Петроградский район,Санкт-Петербург,,Санкт-Петербург,Россия,Пн: 08:00-22:00; Вт: 08:00-22:00; Ср: 08:00-22:00; Чт: 08:00-22:00; Пт: 08:00-22:00; Сб: 09:00-22:00; Вс: 09:00-22:00,+03:00,3.4,112,88123132261 (интернет-магазин: пн-вс 9:00-22:00),,,,,http://british-bakery.ru,,,https://vk.com/club46155943,,,,,,https://t.me/britishbakery,,https://youtube.com/channel/UCvsFkwFZTetFu9ro8FJ34jw,59.966056,30.312203,https://2gis.com/firm/70000001031438984
FermA,кондитерская,Кофейни; Кондитерские изделия; Продукты быстрого приготовления; Кафе-кондитерские,"улица Садовая, 42",1 этаж,190031,Сенной,Адмиралтейский район,Санкт-Петербург,,Санкт-Петербург,Россия,Пн: 10:00-23:00; Вт: 10:00-23:00; Ср: 10:00-23:00; Чт: 10:00-23:00; Пт: 10:00-23:00; Сб: 10:00-23:00; Вс: 10:00-23:00,+03:00,4.8,482,88126430400,,,,,http://white-group.ru,,,https://vk.com/fermacafe,,,,,,,,,59.925878,30.316599,https://2gis.com/firm/5348553838509296
Нежно,цветочная мастерская,Цветы; Кофейни; Антиквариат; Доставка цветов,"Большая Зеленина, 21 лит А",1 этаж,197110,Чкаловское,Петроградский район,Санкт-Петербург,,Санкт-Петербург,Россия,Пн: 10:00-21:00; Вт: 10:00-21:00; Ср: 10:00-21:00; Чт: 10:00-21:00; Пт: 10:00-21:00; Сб: 10:00-21:00; Вс: 10:00-21:00,+03:00,4.1,12,89217882121,,,,,,,,,https://wa.me/79217882121,,,,,,,,59.962831,30.289463,https://2gis.com/firm/70000001063286413
Coffee room,кофейня,Кофейни; Доставка готовых блюд; Кафе,"Большая Монетная, 11",1 этаж,197101,Кронверкское,Петроградский район,Санкт-Петербург,,Санкт-Петербург,Россия,Пн: 09:00-23:00; Вт: 09:00-23:00; Ср: 09:00-23:00; Чт: 09:00-23:00; Пт: 09:00-23:00; Сб: 10:00-23:00; Вс: 10:00-23:00,+03:00,3.7,59,89819847000,,,,,http://coffeeroomspb.com,,,https://vk.com/coffeeroomspb,,,,,,,,,59.961216,30.315696,https://2gis.com/firm/70000001032273626
Cofix,кофейня,Кофейни; Доставка готовых блюд; Кондитерские изделия,"Невский проспект, 81",1 этаж,191040,Владимирский,Центральный район,Санкт-Петербург,,Санкт-Петербург,Россия,Пн: 08:00-23:00; Вт: 08:00-23:00; Ср: 08:00-23:00; Чт: 08:00-23:00; Пт: 08:00-23:00; Сб: 08:00-23:00; Вс: 08:00-23:00,+03:00,4.5,227,88003508418,,,,,http://cofix.global/ru-ru/main/saint-peterburg/,http://cofix.global,,https://vk.com/cofixrussia,,,,,,https://t.me/cofix_russia,,,59.931024,30.359672,https://2gis.com/firm/70000001028907767
Mona tea,кофейня,Безалкогольные напитки; Кофейни,"Невский проспект, 65",2 этаж,191025,Владимирский,Центральный район,Санкт-Петербург,,Санкт-Петербург,Россия,Пн: 11:30-23:00; Вт: 11:30-23:00; Ср: 11:30-23:00; Чт: 11:30-23:00; Пт: 11:30-23:00; Сб: 11:30-23:00; Вс: 11:30-23:00,+03:00,3.6,69,89526678888,,,,,,,,https://vk.com/monateaspb1,https://wa.me/79526678888,,,,,https://t.me/+79526678888,,,59.931825,30.353266,https://2gis.com/firm/70000001054317883
КБТ,кофейня,Кофейни; Кафе,"улица Декабристов, 29 лит А",,190121,Коломна,Адмиралтейский район,Санкт-Петербург,,Санкт-Петербург,Россия,Пн: 09:00-21:00; Вт: 09:00-21:00; Ср: 09:00-21:00; Чт: 09:00-21:00; Пт: 09:00-21:00; Сб: 10:00-21:00; Вс: 10:00-21:00,+03:00,4.9,25,,,,,,http://kbt.spb.ru/,,,https://vk.com/kbt_spb,,,,,,,,,59.925996,30.293047,https://2gis.com/firm/70000001068624041
avcd coffee,кофейня,Кофейни,"Аптекарский проспект, 5 ст1",1 этаж,197022,Аптекарский остров,Петроградский район,Санкт-Петербург,,Санкт-Петербург,Россия,Пн: 08:05-20:05; Вт: 08:05-20:05; Ср: 08:05-20:05; Чт: 08:05-20:05; Пт: 08:05-20:05; Сб: 08:05-20:05; Вс: 08:05-20:05,+03:00,3.8,44,,,,,,http://t.me/avcdco,,,,https://wa.me/79216482823,,,,,,,,59.973344,30.32074,https://2gis.com/firm/70000001056360594
Limitless cafe,кофейня,Кофейни; Продажа кофе,"Большой Казачий переулок, 4",1 этаж,191180,Семёновский,Адмиралтейский район,Санкт-Петербург,,Санкт-Петербург,Россия,Пн: 09:00-21:00; Вт: 09:00-21:00; Ср: 09:00-21:00; Чт: 09:00-21:00; Пт: 09:00-21:00; Сб: 10:00-21:00; Вс: 10:00-21:00,+03:00,4.1,54,89995236088,,,,,,,,,,,,,,,,,59.92337,30.328298,https://2gis.com/firm/70000001035451813
Крендель на Мойке,кофейня,Кофейни; Кондитерские изделия,"набережная реки Мойки, 26",1 этаж,191186,Дворцовый,Центральный район,Санкт-Петербург,,Санкт-Петербург,Россия,Пн: 09:00-21:00; Вт: 09:00-21:00; Ср: 09:00-21:00; Чт: 09:00-21:00; Пт: 09:00-21:00; Сб: 09:00-21:00; Вс: 09:00-21:00,+03:00,4.8,54,89967726744,,,,,,,,https://vk.com/public206331070,,,,,,,,,59.939026,30.319753,https://2gis.com/firm/70000001054734176
Habit,кофейня,Кофейни,"улица Льва Толстого, 1/3",1 этаж,197022,Аптекарский остров,Петроградский район,Санкт-Петербург,,Санкт-Петербург,Россия,Пн: 08:00-21:00; Вт: 08:00-21:00; Ср: 08:00-21:00; Чт: 08:00-21:00; Пт: 08:00-21:00; Сб: 10:00-21:00; Вс: 10:00-21:00,+03:00,3.8,16,89675742777,,,,,,,,,,,,,,,,,59.965443,30.313749,https://2gis.com/firm/70000001059413257
Once,кофейня,Кафе-кондитерские; Кофейни,"Мучной переулок, 2 лит Г",1-2 этаж,191023,Муниципальный округ №78,Центральный район,Санкт-Петербург,,Санкт-Петербург,Россия,Пн: 10:00-20:00; Вт: 10:00-20:00; Ср: 10:00-20:00; Чт: 10:00-20:00; Пт: 10:00-20:00; Сб: 10:00-20:00; Вс: 10:00-20:00,+03:00,4.7,19,89213466001,,,,,,,,,,,,,,https://t.me/oncecake,,,59.930547,30.322644,https://2gis.com/firm/70000001054102219
Amelie,буланжери,Пекарни; Кофейни,"улица Звенигородская, 4",цокольный этаж,191119,Владимирский,Центральный район,Санкт-Петербург,,Санкт-Петербург,Россия,Пн: 08:00-21:00; Вт: 08:00-21:00; Ср: 08:00-21:00; Чт: 08:00-21:00; Пт: 08:00-21:00; Сб: 08:00-21:00; Вс: 08:00-21:00,+03:00,4.5,24,89213241410,89819819850,,,,,,,,https://wa.me/79213241410,https://wa.me/79819819850,,,,,,,59.922615,30.336368,https://2gis.com/firm/70000001068055278
Unic,кофейня,Кофейни,"Кронверкская, 12",1 этаж,197101,Кронверкское,Петроградский район,Санкт-Петербург,,Санкт-Петербург,Россия,Пн: 08:30-21:00; Вт: 08:30-21:00; Ср: 08:30-21:00; Чт: 08:30-21:00; Пт: 08:30-21:00; Сб: 09:00-21:00; Вс: 09:00-21:00,+03:00,4.0,65,89218460616,,,,,,,,https://vk.com/blackunicornspb,,,,,,,,,59.960051,30.311485,https://2gis.com/firm/70000001029514636
Coffeeshop company,кофейня,Кофейни; Доставка готовых блюд; Кафе,"улица Садовая, 42",1 этаж,190031,Сенной,Адмиралтейский район,Санкт-Петербург,,Санкт-Петербург,Россия,Пн: 08:00-23:00; Вт: 08:00-23:00; Ср: 08:00-23:00; Чт: 08:00-23:00; Пт: 08:00-23:00; Сб: 08:00-23:00; Вс: 08:00-23:00,+03:00,4.6,141,89219118581,89319982242,,,,http://www.coffeeshopcompany.ru,,,https://vk.com/csc,,,,,,,,,59.925982,30.316425,https://2gis.com/firm/70000001067246657
Цех85,пекарня-кондитерская,Кондитерские изделия; Пекарни; Кафе-кондитерские; Доставка готовых блюд; Кофейни,"Средний проспект В.О., 36/40",1 этаж,199004,Муниципальный округ №7,Василеостровский район,Санкт-Петербург,,Санкт-Петербург,Россия,Пн: 07:00-23:00; Вт: 07:00-23:00; Ср: 07:00-23:00; Чт: 07:00-23:00; Пт: 07:00-23:00; Сб: 08:00-22:00; Вс: 08:00-22:00,+03:00,4.0,30,88005008985 (единый номер: пн-вс 8:00-22:00),,,info@tseh85.ru,,http://tseh85.ru,,,https://vk.com/tseh85,,,,,,https://t.me/tseh85bakery,,,59.942025,30.276199,https://2gis.com/firm/70000001048294521
Британские Пекарни,кафе-кондитерская,Кофейни; Пекарни; Доставка готовых блюд; Кафе-кондитерские; Кондитерские изделия,"Владимирский проспект, 19",1 этаж,191002,Владимирский,Центральный район,Санкт-Петербург,,Санкт-Петербург,Россия,Пн: 08:00-22:00; Вт: 08:00-22:00; Ср: 08:00-22:00; Чт: 08:00-22:00; Пт: 08:00-22:00; Сб: 09:00-22:00; Вс: 09:00-22:00,+03:00,3.9,84,88123132261 (интернет-магазин: пн-вс 9:00-22:00),,,,,http://british-bakery.ru,,,https://vk.com/club46155943,,,,,,https://t.me/britishbakery,,https://youtube.com/channel/UCvsFkwFZTetFu9ro8FJ34jw,59.928397,30.346797,https://2gis.com/firm/70000001017537437
Coffee&waffle,кофейня,Кофейни,"Правды, 5",1 этаж,191002,Владимирский,Центральный район,Санкт-Петербург,,Санкт-Петербург,Россия,Пн: 09:00-22:00; Вт: 09:00-22:00; Ср: 09:00-22:00; Чт: 09:00-22:00; Пт: 09:00-22:00; Сб: 09:00-22:00; Вс: 09:00-22:00,+03:00,4.9,162,89214277008,,,,,http://coffeeandwaffle.business.site,,,https://vk.com/coffeeandwaffle,,,,,,https://t.me/coffee_and_waffle,,,59.923993,30.343079,https://2gis.com/firm/70000001055243267
Цех85,пекарня-кондитерская,Кондитерские изделия; Пекарни; Кафе-кондитерские; Кофейни; Доставка готовых блюд,"Разъезжая, 39",1 этаж,191119,Владимирский,Центральный район,Санкт-Петербург,,Санкт-Петербург,Россия,Пн: 08:00-22:00; Вт: 08:00-22:00; Ср: 08:00-22:00; Чт: 08:00-22:00; Пт: 08:00-22:00; Сб: 08:00-22:00; Вс: 08:00-22:00,+03:00,3.8,51,88005008985 (единый номер: пн-вс 8:00-22:00),,,info@tseh85.ru,,http://tseh85.ru,,,https://vk.com/tseh85,,,,,,https://t.me/tseh85bakery,,,59.922,30.35161,https://2gis.com/firm/70000001031477792
Amazing Cacao,шоколадная фабрика,Кондитерские изделия; Кофейни; Продажа кофе,"набережная Обводного канала, 74 лит Т",1-2 этаж,196084,Московская застава,Московский район,Санкт-Петербург,,Санкт-Петербург,Россия,Пн: 10:30-19:30; Вт: 10:30-19:30; Ср: 10:30-19:30; Чт: 10:30-19:30; Пт: 10:30-19:30; Сб: 10:00-20:00; Вс: 10:00-20:00,+03:00,4.8,24,89119103329,89219120095,89219120022,,,http://www.amazingchoco.com,,,https://vk.com/Amazingcacao,https://wa.me/79219120048,https://wa.me/79119103329,https://wa.me/79219120095,,,https://t.me/amazingcacao,,,59.911057,30.330081,https://2gis.com/firm/70000001047200614
Babka,пекарня,Пекарни; Кофейни,"Малый проспект В.О., 48",1 этаж,199178,Васильевский,Василеостровский район,Санкт-Петербург,,Санкт-Петербург,Россия,Пн: 08:00-20:00; Вт: 08:00-20:00; Ср: 08:00-20:00; Чт: 08:00-20:00; Пт: 08:00-20:00; Сб: 10:00-20:00; Вс: 10:00-20:00,+03:00,4.9,43,89119402211,,,,,http://babka.cafe,,,,https://wa.me/79119402211,,,viber://chat/?number=79119402211,,,,,59.943366,30.262091,https://2gis.com/firm/70000001068538490
Это взаимно,кофейня,Кофейни,"7-я линия В.О., 14",цокольный этаж,199034,Муниципальный округ №7,Василеостровский район,Санкт-Петербург,,Санкт-Петербург,Россия,Пн: 08:30-22:00; Вт: 08:30-22:00; Ср: 08:30-22:00; Чт: 08:30-22:00; Пт: 08:30-22:00; Сб: 09:30-22:00; Вс: 09:30-22:00,+03:00,5.0,32,89217666203,89215638405,,,,,,,https://vk.com/etovzaimnospb,https://wa.me/79215638405,,,,,https://t.me/921-563-84-05,,,59.938096,30.284177,https://2gis.com/firm/70000001075001720
Цех85,пекарня-кондитерская,Кондитерские изделия; Пекарни; Кафе-кондитерские; Кофейни; Доставка готовых блюд,"Малая Посадская, 7/4",1 этаж,197046,Посадский,Петроградский район,Санкт-Петербург,,Санкт-Петербург,Россия,Пн: 07:00-22:00; Вт: 07:00-22:00; Ср: 07:00-22:00; Чт: 07:00-22:00; Пт: 07:00-22:00; Сб: 08:00-22:00; Вс: 08:00-22:00,+03:00,3.7,38,88005008985 (единый номер: пн-вс 8:00-22:00),,,info@tseh85.ru,,http://tseh85.ru,,,https://vk.com/tseh85,,,,,,https://t.me/tseh85bakery,,,59.957056,30.322092,https://2gis.com/firm/70000001047169783
Подписные Булочки,кофейня,Кофейни,"Литейный проспект, 57",2 этаж; магазин Подписные издания,191014,Литейный,Центральный район,Санкт-Петербург,,Санкт-Петербург,Россия,Пн: 10:00-22:00; Вт: 10:00-22:00; Ср: 10:00-22:00; Чт: 10:00-22:00; Пт: 10:00-22:00; Сб: 10:00-22:00; Вс: 10:00-22:00,+03:00,4.0,3,89955984019,,,,,,,,,https://wa.me/79955984019,,,,,,,,59.934368,30.347731,https://2gis.com/firm/70000001069217079
Парадная,кофейня,Кофейни; Продажа кофе; Кондитерские изделия,"набережная канала Грибоедова, 106",цокольный этаж,190068,Адмиралтейский,Адмиралтейский район,Санкт-Петербург,,Санкт-Петербург,Россия,Пн: 09:00-21:00; Вт: 09:00-21:00; Ср: 09:00-21:00; Чт: 09:00-21:00; Пт: 09:00-21:00; Сб: 10:00-22:00; Вс: 10:00-22:00,+03:00,4.6,44,89933366106,,,,,,,,,,,,,,,,,59.924278,30.303826,https://2gis.com/firm/70000001021931002
Кофе-Нарушители,кофейня,Кофейни; Кондитерские изделия; Продажа кофе,"Маяковского, 37 к3",1 этаж,191123,Литейный,Центральный район,Санкт-Петербург,,Санкт-Петербург,Россия,Пн: 10:00-21:00; Вт: 10:00-21:00; Ср: 10:00-21:00; Чт: 10:00-21:00; Пт: 10:00-21:00; Сб: 10:00-21:00; Вс: 10:00-21:00,+03:00,4.4,55,89119314648,,,,,,,,,,,,,,,,,59.94192,30.357359,https://2gis.com/firm/70000001035573609
Цех85,пекарня-кондитерская,Кондитерские изделия; Пекарни; Кафе-кондитерские; Доставка готовых блюд; Кофейни,"переулок Гривцова, 20",1 этаж,190031,Сенной,Адмиралтейский район,Санкт-Петербург,,Санкт-Петербург,Россия,Пн: 07:00-21:00; Вт: 07:00-21:00; Ср: 07:00-21:00; Чт: 07:00-21:00; Пт: 07:00-21:00; Сб: 08:00-21:00; Вс: 08:00-21:00,+03:00,3.0,56,88005008985 (единый номер: пн-вс 8:00-22:00),,,info@tseh85.ru,,http://tseh85.ru,,,https://vk.com/tseh85,,,,,,https://t.me/tseh85bakery,,,59.928231,30.316104,https://2gis.com/firm/70000001027692951
Коржов,пекарня-кондитерская,Пекарни; Кафе-кондитерские; Кофейни,"Московский проспект, 42/27",1 этаж,190013,Семёновский,Адмиралтейский район,Санкт-Петербург,,Санкт-Петербург,Россия,Пн: 08:00-22:00; Вт: 08:00-22:00; Ср: 08:00-22:00; Чт: 08:00-22:00; Пт: 08:00-22:00; Сб: 08:00-22:00; Вс: 09:00-22:00,+03:00,4.0,120,89219304631,,,,,http://korjov.com,,,https://vk.com/korjov_bakeries,,,,,,,,,59.913834,30.318476,https://2gis.com/firm/70000001044777638
Kruch,кондитерская,Кафе-кондитерские; Доставка готовых блюд; Кондитерские изделия; Кофейни,"Корпусная, 9",1 этаж,197110,Чкаловское,Петроградский район,Санкт-Петербург,,Санкт-Петербург,Россия,Пн: 09:00-21:00; Вт: 09:00-21:00; Ср: 09:00-21:00; Чт: 09:00-21:00; Пт: 09:00-21:00; Сб: 09:00-21:00; Вс: 09:00-21:00,+03:00,4.2,14,89213844414,,,,,http://kruch-desserts.ru,,,,https://wa.me/79213844414,,,,,,,,59.962921,30.288174,https://2gis.com/firm/70000001055391440
Shaka coffee,кофейня,Кофейни; Доставка готовых блюд,"9-я линия В.О., 70",1 этаж,199178,Васильевский,Василеостровский район,Санкт-Петербург,,Санкт-Петербург,Россия,Пн: 09:00-22:00; Вт: 09:00-22:00; Ср: 09:00-22:00; Чт: 09:00-22:00; Пт: 09:00-22:00; Сб: 09:00-22:00; Вс: 09:00-22:00,+03:00,4.5,74,89811819731,,,,,http://dobrocoffeemicroroasters.com,,,https://vk.com/dobrocoffee,https://wa.me/79811819731,,,,,https://t.me/shakacoffeespb,,,59.947147,30.270226,https://2gis.com/firm/70000001038056663
Где бабуля?,культурное пространство,Сувениры; Курсы творчества и рукоделия для взрослых; Организация и проведение праздников; Коворкинг; Кофейни,"набережная канала Грибоедова, 104",цокольный этаж,190068,Адмиралтейский,Адмиралтейский район,Санкт-Петербург,,Санкт-Петербург,Россия,Пн: 11:00-21:00; Вт: 11:00-21:00; Ср: 11:00-21:00; Чт: 11:00-21:00; Пт: 11:00-21:00; Сб: 11:00-21:00; Вс: 11:00-21:00,+03:00,4.8,11,89052598033,89111447901,,,,http://gdebabulya.ru,,,https://vk.com/gdebabulya,https://wa.me/79052598033,https://wa.me/79111447901,,,,https://t.me/gdebabulya,,,59.925056,30.303523,https://2gis.com/firm/70000001059440025
Cake me tender,кофейня-кондитерская,Кондитерские изделия; Доставка готовых блюд; Кофейни; Пекарни,"Большой проспект В.О., 16",1 этаж,199034,Муниципальный округ №7,Василеостровский район,Санкт-Петербург,,Санкт-Петербург,Россия,Пн: 09:00-21:00; Вт: 09:00-21:00; Ср: 09:00-21:00; Чт: 09:00-21:00; Пт: 09:00-21:00; Сб: 09:00-21:00; Вс: 09:00-21:00,+03:00,4.3,44,89310095070,,,,,http://cakemetender.ru,,,https://vk.com/cakemetender.cafe,,,,,,https://t.me/cakemetender,,,59.939406,30.28569,https://2gis.com/firm/70000001040041549
Стрелка,кофейня,Кофейни,"4-я линия В.О., 59",,199178,Васильевский,Василеостровский район,Санкт-Петербург,,Санкт-Петербург,Россия,Пн: 09:00-21:00; Вт: 09:00-21:00; Ср: 09:00-21:00; Чт: 09:00-21:00; Пт: 09:00-21:00; Сб: 10:00-21:00; Вс: 10:00-21:00,+03:00,5.0,8,,,,,,,,,,,,,,,,,,59.948455,30.276105,https://2gis.com/firm/70000001079751209
Вкусно — и точка,кафе,Кофейни,"Думская, 4 лит А",2 этаж,191011,Муниципальный округ №78,Центральный район,Санкт-Петербург,,Санкт-Петербург,Россия,Пн: 07:00-23:00; Вт: 07:00-23:00; Ср: 07:00-23:00; Чт: 07:00-23:00; Пт: 07:00-23:00; Сб: 07:00-23:00; Вс: 07:00-23:00,+03:00,4.4,5,,,,,,http://vkusnoitochka.ru,,,https://vk.com/vkusno_itochka,,,,,,https://t.me/vit_russia,,,59.933751,30.329088,https://2gis.com/firm/70000001038228117
Шоколадница,кофейня,Кофейни; Доставка готовых блюд; Кафе,"Невский проспект, 18",1 этаж,191186,Дворцовый,Центральный район,Санкт-Петербург,,Санкт-Петербург,Россия,Пн: 00:00-24:00; Вт: 00:00-24:00; Ср: 00:00-24:00; Чт: 00:00-24:00; Пт: 00:00-24:00; Сб: 00:00-24:00; Вс: 00:00-24:00,+03:00,2.4,157,89291770218,,,,,http://shoko.ru,http://regions.shoko.ru,,https://vk.com/shokoru,,,,,,,,,59.936637,30.317868,https://2gis.com/firm/5348552838578060
Север-Метрополь,кафе-кондитерская,Доставка готовых блюд; Кафе-кондитерские; Кондитерские изделия; Кофейни,"Невский проспект, 6",1 этаж,191186,Дворцовый,Центральный район,Санкт-Петербург,,Санкт-Петербург,Россия,Пн: 08:00-22:00; Вт: 08:00-22:00; Ср: 08:00-22:00; Чт: 08:00-22:00; Пт: 08:00-22:00; Сб: 08:00-22:00; Вс: 08:00-22:00,+03:00,2.6,46,88123298168,,,,,http://sever-metropol.ru,,,https://vk.com/sever.metropol,,,,,,https://t.me/severmetropol,,,59.936903,30.314642,https://2gis.com/firm/70000001050918725
Щелкунчик,кофейня,Кофейни; Кафе-кондитерские,"Союза Печатников, 8",1 этаж,190068,Коломна,Адмиралтейский район,Санкт-Петербург,,Санкт-Петербург,Россия,Пн: 09:30-22:00; Вт: 09:30-22:00; Ср: 09:30-22:00; Чт: 09:30-22:00; Пт: 09:30-22:00; Сб: 09:30-22:00; Вс: 09:30-22:00,+03:00,4.4,19,89214433141,,,,,,,,https://vk.com/club14905617,https://wa.me/79214433141,,,,,,,,59.923945,30.293467,https://2gis.com/firm/70000001044782132
Cookies,кофейня,Кофейни,"Моховая, 14",1 этаж,191028,Литейный,Центральный район,Санкт-Петербург,,Санкт-Петербург,Россия,Пн: 09:00-21:00; Вт: 09:00-21:00; Ср: 09:00-21:00; Чт: 09:00-21:00; Пт: 09:00-21:00; Сб: 09:00-21:00; Вс: 09:00-21:00,+03:00,4.0,55,89939591127,,,,,,,,,,,,,,https://t.me/+79939591127,,,59.944437,30.345365,https://2gis.com/firm/70000001044155069
Цех85,пекарня-кондитерская,Кондитерские изделия; Пекарни; Кафе-кондитерские; Доставка готовых блюд; Кофейни,"Большой проспект П.С., 104",1 этаж,197022,Аптекарский остров,Петроградский район,Санкт-Петербург,,Санкт-Петербург,Россия,Пн: 07:00-22:00; Вт: 07:00-22:00; Ср: 07:00-22:00; Чт: 07:00-22:00; Пт: 07:00-22:00; Сб: 09:00-22:00; Вс: 09:00-22:00,+03:00,3.6,30,88005008985 (единый номер: пн-вс 8:00-22:00),,,info@tseh85.ru,,http://tseh85.ru,,,https://vk.com/tseh85,,,,,,https://t.me/tseh85bakery,,,59.967307,30.313555,https://2gis.com/firm/70000001052520066
Цех85,г. Санкт-Петербург,Кондитерские изделия; Пекарни; Кофейни; Доставка готовых блюд; Кафе-кондитерские,"набережная канала Грибоедова, 23",1 этаж,191186,Муниципальный округ №78,Центральный район,Санкт-Петербург,,Санкт-Петербург,Россия,Пн: 07:30-22:00; Вт: 07:30-22:00; Ср: 07:30-22:00; Чт: 07:30-22:00; Пт: 07:30-22:00; Сб: 08:00-22:00; Вс: 08:00-22:00,+03:00,3.9,17,88005008985 (единый номер: пн-вс 8:00-22:00),,,,,http://tseh85.ru,,,https://vk.com/tseh85,,,,,,https://t.me/tseh85bakery,,,59.933414,30.325095,https://2gis.com/firm/70000001067937433
Maybe Tokyo,кофейня,Кофейни; Продажа кофе,"улица Кирочная, 3",1 этаж,191028,Литейный,Центральный район,Санкт-Петербург,,Санкт-Петербург,Россия,Пн: 08:00-20:00; Вт: 08:00-20:00; Ср: 08:00-20:00; Чт: 08:00-20:00; Пт: 08:00-20:00; Сб: 08:00-20:00; Вс: 08:00-20:00,+03:00,4.9,33,,,,,,http://maybetokyo.coffee,http://maybetokyo.com,,,,,,,,,,,59.943899,30.351113,https://2gis.com/firm/70000001065670835
Трубочерия,кофейня,Кофейни; Доставка готовых блюд,"10-я линия В.О., 41",1 этаж,199178,Васильевский,Василеостровский район,Санкт-Петербург,,Санкт-Петербург,Россия,Пн: 09:00-20:00; Вт: 09:00-20:00; Ср: 09:00-20:00; Чт: 09:00-20:00; Пт: 09:00-20:00; Сб: 10:00-20:00; Вс: 10:00-20:00,+03:00,4.7,42,89215634560,,,,,,,,,https://wa.me/79215634560,,,,,https://t.me/cafetrubocheria,,,59.944051,30.271022,https://2gis.com/firm/70000001025553340
Swan coffee,кофейня,Кофейни,"Лизы Чайкиной, 4/12",1 этаж,197198,Введенский,Петроградский район,Санкт-Петербург,,Санкт-Петербург,Россия,Пн: 08:30-21:00; Вт: 08:30-21:00; Ср: 08:30-21:00; Чт: 08:30-21:00; Пт: 08:30-21:00; Сб: 11:00-21:00; Вс: 11:00-21:00,+03:00,4.1,40,89052063019,,,,,,,,,https://wa.me/79052063019,,,,,https://t.me/Swancoffeespb,,,59.956239,30.298552,https://2gis.com/firm/70000001038419395
The favourite breakfast,кофейня,Кофейни; Коворкинг; Кафе,"Восстания, 37-39",1 этаж,191014,Смольнинское,Центральный район,Санкт-Петербург,,Санкт-Петербург,Россия,Пн: 09:00-19:00; Вт: 09:00-19:00; Ср: 09:00-19:00; Чт: 09:00-19:00; Пт: 09:00-20:00; Сб: 09:00-20:00; Вс: 09:00-20:00,+03:00,4.5,72,89112633796,,,,,,,,,https://wa.me/79112633796,,,,,,,,59.939682,30.360737,https://2gis.com/firm/70000001052518600
Энди кофе,кофейня,Кофейни,"Большой проспект П.С., 106",1 этаж,197022,Аптекарский остров,Петроградский район,Санкт-Петербург,,Санкт-Петербург,Россия,Пн: 09:00-21:00; Вт: 09:00-21:00; Ср: 09:00-21:00; Чт: 09:00-21:00; Пт: 09:00-21:00; Сб: 10:00-21:00; Вс: 10:00-21:00,+03:00,4.2,82,89811247207,,,,,,,,,,,,,,https://t.me/+79811247207,https://t.me/andycoffee106,,59.967628,30.313324,https://2gis.com/firm/70000001020030574
ЭР.10,кофейня,Кофейни,"Репина, 10",1 этаж,199034,Муниципальный округ №7,Василеостровский район,Санкт-Петербург,,Санкт-Петербург,Россия,Пн: 10:00-21:00; Вт: 10:00-21:00; Ср: 10:00-21:00; Чт: 10:00-21:00; Пт: 10:00-21:00; Сб: 10:00-21:00; Вс: 10:00-21:00,+03:00,4.9,34,,,,,,http://annapomogaet.ru,,,https://vk.com/annapomogaet,,,,,,https://t.me/planetar10,,,59.939871,30.290517,https://2gis.com/firm/70000001046652675
Am saint,кофейня,Кофейни,"Чайковского, 56",1 этаж,191123,Смольнинское,Центральный район,Санкт-Петербург,,Санкт-Петербург,Россия,Пн: 09:00-20:00; Вт: 09:00-20:00; Ср: 09:00-20:00; Чт: 09:00-20:00; Пт: 09:00-20:00; Сб: 10:00-21:00; Вс: 10:00-21:00,+03:00,4.3,40,89219616039,,,,,,,,,https://wa.me/79219616039,,,,,,,,59.946532,30.365304,https://2gis.com/firm/70000001048778065
FermA,кондитерская,Кофейни; Кафе-кондитерские; Кондитерские изделия,"Невский проспект, 48",1 этаж,191011,Дворцовый,Центральный район,Санкт-Петербург,,Санкт-Петербург,Россия,Пн: 10:00-22:00; Вт: 10:00-22:00; Ср: 10:00-22:00; Чт: 10:00-22:00; Пт: 10:00-22:00; Сб: 10:00-22:00; Вс: 10:00-22:00,+03:00,4.9,162,89315360600,,,,,http://white-group.ru,,,https://vk.com/fermacafeteria,,,,,,,,,59.934595,30.334316,https://2gis.com/firm/70000001052178918
Coffeshop,кофейня,Кофейни; Кондитерские изделия,"Невский проспект, 56",1 этаж,191023,Дворцовый,Центральный район,Санкт-Петербург,,Санкт-Петербург,Россия,Пн: 10:00-23:00; Вт: 10:00-23:00; Ср: 10:00-23:00; Чт: 10:00-23:00; Пт: 10:00-23:00; Сб: 10:00-23:00; Вс: 10:00-23:00,+03:00,3.1,26,88124566666,,,,,http://kupetzeliseevs.ru,,,https://vk.com/club64259150,,,,,,,,,59.934146,30.337928,https://2gis.com/firm/70000001017443960
Север-Метрополь,кафе-кондитерская,Кафе-кондитерские; Кофейни; Кондитерские изделия; Пекарни,"Невский проспект, 104",1 этаж,191025,Литейный,Центральный район,Санкт-Петербург,,Санкт-Петербург,Россия,Пн: 07:00-23:00; Вт: 07:00-23:00; Ср: 07:00-23:00; Чт: 07:00-23:00; Пт: 07:00-23:00; Сб: 07:00-23:00; Вс: 07:00-23:00,+03:00,3.4,82,88125799535,,,,,http://sever-metropol.ru,,,https://vk.com/sever.metropol,,,,,,https://t.me/severmetropol,,,59.931771,30.356575,https://2gis.com/firm/5348553838579699
Double bubble tea,кафе,Кофейни,"Гороховая, 12",1 этаж,191186,Муниципальный округ №78,Центральный район,Санкт-Петербург,,Санкт-Петербург,Россия,Пн: 10:00-22:00; Вт: 10:00-22:00; Ср: 10:00-22:00; Чт: 10:00-22:00; Пт: 10:00-22:00; Сб: 10:00-22:00; Вс: 10:00-22:00,+03:00,5.0,36,89111480096,,,doublebubble.spb@yandex.ru,,http://dbtea.ru,,,https://vk.com/doublebubbletea,https://wa.me/79112884477,,,,,,,,59.934614,30.313075,https://2gis.com/firm/70000001079615668
Stars coffee,кофейня,Кофейни,"Невский проспект, 114-116",1 этаж,191025,Литейный,Центральный район,Санкт-Петербург,,Санкт-Петербург,Россия,Пн: 10:00-23:00; Вт: 10:00-23:00; Ср: 10:00-23:00; Чт: 10:00-23:00; Пт: 10:00-23:00; Сб: 10:00-23:00; Вс: 10:00-23:00,+03:00,2.9,90,,,,,,http://stars-coffee.ru,,,https://vk.com/starscoffee_official,,,,,,,,,59.932089,30.359307,https://2gis.com/firm/5348553838585616
Mntn coffee,кофейня,Кофейни; Кондитерские изделия; Продажа кофе,"Большая Зеленина, 34",1 этаж,197110,Чкаловское,Петроградский район,Санкт-Петербург,,Санкт-Петербург,Россия,Пн: 08:00-21:00; Вт: 08:00-21:00; Ср: 08:00-21:00; Чт: 08:00-21:00; Пт: 08:00-21:00; Сб: 10:00-21:00; Вс: 10:00-21:00,+03:00,4.5,41,89500232888,,,,,http://mntncoffee.ru,,,,,,,,,,,,59.964914,30.284149,https://2gis.com/firm/70000001047508418
Cookushka,кофейня,Кофейни; Кондитерские изделия; Доставка готовых блюд,"набережная Обводного канала, 108 лит А",1 этаж,196084,Измайловское,Адмиралтейский район,Санкт-Петербург,,Санкт-Петербург,Россия,Пн: 08:00-21:00; Вт: 08:00-21:00; Ср: 08:00-21:00; Чт: 08:00-21:00; Пт: 08:00-21:00; Сб: 09:00-21:00; Вс: 09:00-21:00,+03:00,4.5,78,89214049969,,,,,http://cookushka.cafe,,,,https://wa.me/79214049969,,,,,,,,59.907617,30.312177,https://2gis.com/firm/70000001045224851
Brew coffee,,Кофейни,"Кадетская линия В.О., 29",1 этаж,199004,Васильевский,Василеостровский район,Санкт-Петербург,,Санкт-Петербург,Россия,Пн: 08:00-21:00; Вт: 08:00-21:00; Ср: 08:00-21:00; Чт: 08:00-21:00; Пт: 08:00-21:00; Сб: 09:00-22:00; Вс: 09:00-22:00,+03:00,4.7,29,,,,,,,,,,,,,,,,,,59.946706,30.284896,https://2gis.com/firm/70000001075255580
Будем знакомы,кофейня,Кофейни; Кондитерские изделия; Продажа кофе,"Рижский проспект, 2",1 этаж,190103,Екатерингофский,Адмиралтейский район,Санкт-Петербург,,Санкт-Петербург,Россия,Пн: 08:00-20:00; Вт: 08:00-20:00; Ср: 08:00-20:00; Чт: 08:00-20:00; Пт: 08:00-20:00; Сб: 10:00-20:00; Вс: 10:00-20:00,+03:00,4.1,41,89956075842,,,,,,,,,,,,,,https://t.me/budemznakomycoffee,https://t.me/+79956075842,,59.913639,30.297304,https://2gis.com/firm/70000001032670592
Институт,кофейня,Кофейни,"Кадетская линия В.О., 5 к2 лит Д",,199004,Муниципальный округ №7,Василеостровский район,Санкт-Петербург,,Санкт-Петербург,Россия,Пн: 10:00-21:00; Вт: 10:00-21:00; Ср: 10:00-21:00; Чт: 10:00-21:00; Пт: 10:00-21:00; Сб: 10:00-21:00; Вс: 10:00-21:00,+03:00,5.0,4,89119592334,,,,,,,,,https://wa.me/79119592334,,,viber://chat/?number=79119592334,,https://t.me/+79119592334,,,59.943062,30.290849,https://2gis.com/firm/70000001075779932
Yagoda,кофейня,Кофейни; Продажа кофе; Кондитерские изделия; Доставка готовых блюд,"Кронверкский проспект, 65/37",1 этаж,197198,Введенский,Петроградский район,Санкт-Петербург,,Санкт-Петербург,Россия,Пн: 08:00-22:00; Вт: 08:00-22:00; Ср: 08:00-22:00; Чт: 08:00-22:00; Пт: 08:00-23:00; Сб: 09:00-23:00; Вс: 09:00-22:00,+03:00,4.6,113,89119320736,,,,,http://yagoda.coffee,,,https://vk.com/yagoda_coffee,,,,,,,,,59.953844,30.306408,https://2gis.com/firm/70000001022269478
Академия,кофейня,Кофейни,"Литейный проспект, 57",1 этаж,191014,Литейный,Центральный район,Санкт-Петербург,,Санкт-Петербург,Россия,Пн: 10:00-22:00; Вт: 10:00-22:00; Ср: 10:00-22:00; Чт: 10:00-22:00; Пт: 10:00-22:00; Сб: 10:00-22:00; Вс: 10:00-22:00,+03:00,4.6,5,89810157005,,,,,,,,,,,,,,,,,59.934584,30.347745,https://2gis.com/firm/70000001075895733
Stars coffee,кофейня,Кофейни; Продажа кофе,"Владимирский проспект, 19",1 этаж,191002,Владимирский,Центральный район,Санкт-Петербург,,Санкт-Петербург,Россия,Пн: 08:30-22:00; Вт: 08:30-22:00; Ср: 08:30-22:00; Чт: 08:30-22:00; Пт: 08:30-22:00; Сб: 09:00-22:00; Вс: 09:00-22:00,+03:00,3.8,14,,,,,,http://stars-coffee.ru,,,https://vk.com/starscoffee_official,,,,,,,,,59.928644,30.346723,https://2gis.com/firm/70000001007150792
Север-Метрополь,кафе-кондитерская,Кафе-кондитерские; Кофейни; Кондитерские изделия; Продажа чая,"Невский проспект, 72",1 этаж,190000,Литейный,Центральный район,Санкт-Петербург,,Санкт-Петербург,Россия,Пн: 08:00-22:00; Вт: 08:00-22:00; Ср: 08:00-22:00; Чт: 08:00-22:00; Пт: 08:00-22:00; Сб: 08:00-22:00; Вс: 08:00-22:00,+03:00,3.8,18,88123298169,,,,,http://sever-metropol.ru,,,https://vk.com/sever.metropol,,,,,,https://t.me/severmetropol,,,59.933084,30.346328,https://2gis.com/firm/70000001061719105
ohaus кофе,кофейня,Кофейни,"улица Академика Крылова, 4а лит А","1, 2 этаж",197183,Ланское,Приморский район,Санкт-Петербург,,Санкт-Петербург,Россия,Пн: 10:00-21:00; Вт: 10:00-21:00; Ср: 10:00-21:00; Чт: 10:00-21:00; Пт: 10:00-21:00; Сб: 10:00-21:00; Вс: 10:00-21:00,+03:00,4.4,24,,,,,,,,,,,,,,,,,,59.985914,30.299385,https://2gis.com/firm/70000001066466260
Coffee&waffle,кофейня,Кофейни,"Ломоносова, 14",1 этаж,191002,Владимирский,Центральный район,Санкт-Петербург,,Санкт-Петербург,Россия,Пн: 09:00-22:00; Вт: 09:00-22:00; Ср: 09:00-22:00; Чт: 09:00-22:00; Пт: 09:00-22:00; Сб: 09:00-22:00; Вс: 09:00-22:00,+03:00,4.7,41,89214277008,,,,,http://coffeeandwaffle.business.site,,,https://vk.com/coffeeandwaffle,,,,,,https://t.me/coffee_and_waffle,,,59.927779,30.338079,https://2gis.com/firm/70000001069136540
Mogi cafe,,Кофейни,"Рылеева, 25",цокольный этаж,191123,Литейный,Центральный район,Санкт-Петербург,,Санкт-Петербург,Россия,Пн: 11:00-21:00; Вт: 11:00-21:00; Ср: 11:00-21:00; Чт: 11:00-21:00; Пт: 11:00-21:00; Сб: 12:00-22:00; Вс: 12:00-22:00,+03:00,4.7,24,,,,,,,,,https://vk.com/mogikpopshop,,,,,,,,,59.942325,30.358953,https://2gis.com/firm/70000001064250875
love you so Matcha,матча-бар,Кофейни; Доставка готовых блюд; Пекарни; Кондитерские изделия,"Малый проспект П.С., 54-56",1 этаж,197110,Петровский,Петроградский район,Санкт-Петербург,,Санкт-Петербург,Россия,Пн: 10:00-23:30; Вт: 10:00-23:30; Ср: 10:00-23:30; Чт: 10:00-23:30; Пт: 10:00-23:30; Сб: 10:00-23:30; Вс: 10:00-23:30,+03:00,4.7,12,89310095070,,,,,http://loveyousomatcha.ru,,,https://vk.com/matchaloveyouso,,,,,,https://t.me/matchaloveyouso,,,59.961263,30.297889,https://2gis.com/firm/70000001062915722
Забыли сахар,кафе,Кофейни; Кафе-кондитерские; Кондитерские изделия; Продажа кофе,"Большой проспект В.О., 16",1 этаж; слева от кафе Eggsellent,199034,Муниципальный округ №7,Василеостровский район,Санкт-Петербург,,Санкт-Петербург,Россия,Пн: 09:00-21:00; Вт: 09:00-21:00; Ср: 09:00-21:00; Чт: 09:00-21:00; Пт: 09:00-22:00; Сб: 09:00-22:00; Вс: 09:00-22:00,+03:00,3.2,27,,,,,,http://забылисахар.рф,,,https://vk.com/zabylisahar,,,,,,https://t.me/zabylisahar,,,59.939515,30.285896,https://2gis.com/firm/70000001052068796
КофеБон,сеть кофеен,Кофейни; Кондитерские изделия; Пекарни; Продажа чая,"Моховая, 26",1 этаж,191028,Литейный,Центральный район,Санкт-Петербург,,Санкт-Петербург,Россия,Пн: 08:00-20:00; Вт: 08:00-20:00; Ср: 08:00-20:00; Чт: 08:00-20:00; Пт: 08:00-20:00; Сб: 08:00-20:00; Вс: 09:00-21:00,+03:00,4.9,72,88123099510 (единый номер: пн-пт 10:00-20:00),,,marketing@coffeebon.ru,,http://coffeebon.ru,,,https://vk.com/coffee_bon,,,,,,https://t.me/coffe_bon,,,59.942066,30.345481,https://2gis.com/firm/70000001034890204
Коржов,пекарня-кондитерская,Кофейни; Пекарни; Кондитерские изделия,"Большой проспект П.С., 90",,197136,Аптекарский остров,Петроградский район,Санкт-Петербург,,Санкт-Петербург,Россия,Пн: 08:00-22:00; Вт: 08:00-22:00; Ср: 08:00-22:00; Чт: 08:00-22:00; Пт: 08:00-22:00; Сб: 09:00-22:00; Вс: 09:00-22:00,+03:00,3.7,22,89668488572,,,,,http://korjov.com,,,https://vk.com/korjov_bakeries,,,,,,,,,59.96488,30.310243,https://2gis.com/firm/70000001067945031
Stars coffee,кофейня,Кофейни; Продажа кофе,"Александровский парк, 4 к3 лит А",1 этаж,197198,Кронверкское,Петроградский район,Санкт-Петербург,,Санкт-Петербург,Россия,Пн: 09:00-22:00; Вт: 09:00-22:00; Ср: 09:00-22:00; Чт: 09:00-22:00; Пт: 09:00-22:00; Сб: 09:00-22:00; Вс: 09:00-22:00,+03:00,3.5,58,,,,,,http://stars-coffee.ru,,,https://vk.com/starscoffee_official,,,,,,,,,59.956119,30.31448,https://2gis.com/firm/5348553838861768
Кио кухня,кулинария,Пекарни; Кондитерские изделия; Кулинарии; Кофейни; Продажа кофе,"Невский проспект, 29-31",1 этаж; вход с ул. Невский проспект,191011,Муниципальный округ №78,Центральный район,Санкт-Петербург,,Санкт-Петербург,Россия,Пн: 08:00-22:00; Вт: 08:00-22:00; Ср: 08:00-22:00; Чт: 08:00-22:00; Пт: 08:00-22:00; Сб: 09:00-22:00; Вс: 09:00-22:00,+03:00,4.5,8,89119149398,,,,,http://kiosu.tilda.ws,,,https://vk.com/kio_kitchen_staff,https://wa.me/79817744072,,,,,,,,59.93488,30.32884,https://2gis.com/firm/70000001077382783
Салют,кофейня,Кофейни; Продажа кофе; Кафе,"Мира, 36",1 этаж,197101,Посадский,Петроградский район,Санкт-Петербург,,Санкт-Петербург,Россия,Пн: 08:00-21:00; Вт: 08:00-21:00; Ср: 08:00-21:00; Чт: 08:00-21:00; Пт: 08:00-21:00; Сб: 09:00-22:00; Вс: 09:00-22:00,+03:00,4.1,56,89219515886,,,,,http://salutcoffe.ru,,,,https://wa.me/79219515886,,,viber://chat/?number=79219515886,,,,,59.962826,30.328343,https://2gis.com/firm/70000001037423321
Coffee room,кофейня,Кофейни; Доставка готовых блюд; Кафе,"улица Льва Толстого, 1-3",3 этаж,197022,Аптекарский остров,Петроградский район,Санкт-Петербург,,Санкт-Петербург,Россия,Пн: 09:00-21:00; Вт: 09:00-21:00; Ср: 09:00-21:00; Чт: 09:00-21:00; Пт: 09:00-21:00; Сб: 10:00-21:00; Вс: 10:00-21:00,+03:00,3.9,33,89817829239,89818589063,,,,http://coffeeroomspb.com,,,https://vk.com/coffeeroomspb,,,,,,,,,59.965323,30.312601,https://2gis.com/firm/70000001029311629
